graphicsPacketID,status,session,currentTime,lastTime,bestTime,split,completedLaps,position,iCurrentTime,iLastTime,iBestTime,sessionTimeLeft,distanceTraveled,isInPit,currentSectorIndex,lastSectorTime,numLaps,tireCompound,replayTimeMultiplier,normalizedCarPosition,coordinatesX,coordinatesY,coordinatesZ,penaltyTime,flag,idealLineOn,isInPitLane,surfaceGrip,mandatoryPitDone,windSpeed,windDirection,physicsPacketID,throttle,brake,fuel,gear,RPM,steeringAngle,speedKMH,velocityX,velocityY,velocityZ,accGX,accGY,accGZ,wheelSlipFL,wheelSlipFR,wheelSlipRL,wheelSlipRR,wheelLoadFL,wheelLoadFR,wheelLoadRL,wheelLoadRR,wheelPressureFL,wheelPressureFR,wheelPressureRL,wheelPressureRR,wheelAngularSpeedFL,wheelAngularSpeedFR,wheelAngularSpeedRL,wheelAngularSpeedRR,tireWearFL,tireWearFR,tireWearRL,tireWearRR,tireDirtyLevelFL,tireDirtyLevelFR,tireDirtyLevelRL,tireDirtyLevelRR,tireCoreTempFL,tireCoreTempFR,tireCoreTempRL,tireCoreTempRR,camberRADFL,camberRADFR,camberRADRL,camberRADRR,suspTravelFL,suspTravelFR,suspTravelRL,suspTravelRR,drs,tc,heading,pitch,roll,cgHeight,carDmgArea1,carDmgArea2,carDmgArea3,carDmgArea4,carDmgArea5,numTiresOut,pitLimiterOn,abs,kersCharge,kersInput,autoShifterOn,rideHeightFront,rideHeightBack,turboBoost,ballast,airDensity,airTemp,roadTemp,localAngularVelocityX,localAngularVelocityY,localAngularVelocityZ,finalForceFeedback,performanceMeter,engineBrake,ersRecoveryLevel,ersPowerLevel,ersHeatCharging,ersIsCharging,kersCurrentKJ,drsAvailable,drsEnabled,brakeTempFL,brakeTempFR,brakeTempRL,brakeTempRR,clutch,tireTempInnerFL,tireTempInnerFR,tireTempInnerRL,tireTempInnerRR,tireTempMiddleFL,tireTempMiddleFR,tireTempMiddleRL,tireTempMiddleRR,tireTempOuterFL,tireTempOuterFR,tireTempOuterRL,tireTempOuterRR,AIControlled,tireContactPointFLX,tireContactPointFLY,tireContactPointFLZ,tireContactPointFRX,tireContactPointFRY,tireContactPointFRZ,tireContactPointRLX,tireContactPointRLY,tireContactPointRLZ,tireContactPointRRX,tireContactPointRRY,tireContactPointRRZ,tireContactNormalFLX,tireContactNormalFLY,tireContactNormalFLZ,tireContactNormalFRX,tireContactNormalFRY,tireContactNormalFRZ,tireContactNormalRLX,tireContactNormalRLY,tireContactNormalRLZ,tireContactNormalRRX,tireContactNormalRRY,tireContactNormalRRZ,tireContactHeadingFLX,tireContactHeadingFLY,tireContactHeadingFLZ,tireContactHeadingFRX,tireContactHeadingFRY,tireContactHeadingFRZ,tireContactHeadingRLX,tireContactHeadingRLY,tireContactHeadingRLZ,tireContactHeadingRRX,tireContactHeadingRRY,tireContactHeadingRRZ,brakeBias,localVelocityX,localVelocityY,localVelocityZ,smVersion,acVersion,numSessions,numCars,carName,trackName,playerFName,playerLName,playerNickname,numSectors,maxTorque,maxPower,maxRPM,maxFuel,maxSuspensionTravelFL,maxSuspensionTravelFR,maxSuspensionTravelRL,maxSuspensionTravelRR,tireRadiusFL,tireRadiusFR,tireRadiusRL,tireRadiusRR,maxTurboBoost,deprecated1,deprecated2,penaltiesEnabled,fuelConsumptionRate,tireWearRate,damageRate,allowTireBlankets,stabilityControl,autoClutch,autoBlip,hasDRS,hasERS,hasKERS,maxJoulesKERS,engineBrakeSettingsCount,ERSPowerControllerCount,trackSplineLength,trackConfiguration,maxJoulesERS,isTimedRace,hasExtraLap,carSkin,reversedGridPositions,pitWindowStart,pitWindowEnd,sessionTime
2361,AC_LIVE,AC_PRACTICE,0:11:370,-:--:---,-:--:---, ,0,1,11370,0,0,-15344.33,0.004,1,0,0,0,Soft (C3),1,0.062,-27.017,61.226,-450.975,0,AC_NO_FLAG,false,true,1,false,0,-180,3489,0,0,50,0,3701,0.016,0,0,0,0,0,0,0,0.072,0.068,0.034,0.048,1678.062,2101.479,2497.44,1997.018,17,17,15,15,0,0.001,-0.005,0.007,100,100,100,100,0,0,0,0,26.002,26.002,26.003,26.002,-0.057,0.051,-0.021,0.027,0.104,0.106,0.049,0.046,0,0,0,-0.011,0.023,0.27,0,0,0,0,0,0,false,0,1,0,true,0.033,0.059,0,0,1.099,26,23,0,0,0,0.002,0,6,5,3,1,false,0,true,false,25.996,25.996,26.025,26.025,1,25.984,26.122,26.075,26.143,25.988,25.992,26.044,26.035,26.126,25.986,26.143,26.055,false,-26.249,60.913,-449.017,-27.808,60.953,-449.018,-26.266,60.96,-452.613,-27.765,60.99,-452.613,0.026,1,0.013,0.026,1,0.013,0.02,1,0.004,0.02,1,0.004,0.004,0.013,-1,0.008,0.013,-1,0.003,0.004,-1,-0.003,0.005,-1,0.53,0,0,0,1.7,1.16.4,1,1,rss_formula_hybrid_2023,ks_nurburgring,rangarajanpraneeth,rangarajanpraneeth,rangarajanpraneeth,3,239.313,573674.625,13050,148,0.15,0.15,0.15,0.15,0.363,0.363,0.363,0.363,1.6,0,0,false,1,0,0,false,0,true,false,true,true,false,0,11,6,5077.904,layout_gp_a,4000000,false,false,rb20_1_verstappen,0,0,0,0
2363,AC_LIVE,AC_PRACTICE,0:11:376,-:--:---,-:--:---, ,0,1,11376,0,0,-15352.257,0.004,1,0,0,0,Soft (C3),1,0.062,-27.017,61.226,-450.975,0,AC_NO_FLAG,false,true,1,false,0,-180,3493,0,0,50,0,3701,0.016,0.002,0,0,0,0,0,0,0.072,0.069,0.034,0.047,1679.104,2104.048,2496.474,1998.168,17,17,15,15,0.001,0.001,-0.005,0.007,100,100,100,100,0,0,0,0,26.002,26.002,26.003,26.002,-0.057,0.051,-0.021,0.027,0.104,0.106,0.049,0.046,0,0,0,-0.011,0.023,0.27,0,0,0,0,0,0,false,0,1,0,true,0.033,0.059,0,0,1.099,26,23,0,0,0,0.001,0,6,5,3,1,false,0,true,false,25.996,25.996,26.025,26.025,1,25.984,26.122,26.075,26.144,25.988,25.992,26.044,26.035,26.127,25.986,26.144,26.055,false,-26.249,60.913,-449.017,-27.808,60.953,-449.018,-26.266,60.96,-452.613,-27.765,60.99,-452.613,0.026,1,0.013,0.026,1,0.013,0.02,1,0.004,0.02,1,0.004,0.004,0.013,-1,0.008,0.013,-1,0.003,0.004,-1,-0.003,0.005,-1,0.53,0,0,0,1.7,1.16.4,1,1,rss_formula_hybrid_2023,ks_nurburgring,rangarajanpraneeth,rangarajanpraneeth,rangarajanpraneeth,3,239.313,573674.625,13050,148,0.15,0.15,0.15,0.15,0.363,0.363,0.363,0.363,1.6,0,0,false,1,0,0,false,0,true,false,true,true,false,0,11,6,5077.904,layout_gp_a,4000000,false,false,rb20_1_verstappen,0,0,0,10
2365,AC_LIVE,AC_PRACTICE,0:11:385,-:--:---,-:--:---, ,0,1,11385,0,0,-15359.966,0.004,1,0,0,0,Soft (C3),1,0.062,-27.017,61.226,-450.975,0,AC_NO_FLAG,false,true,1,false,0,-180,3496,0,0,50,0,3701,0.016,0.001,0,0,0,0,0,0,0.072,0.068,0.034,0.048,1677.288,2102.983,2495.307,1994.98,17,17,15,15,0.001,0.001,0.007,-0.005,100,100,100,100,0,0,0,0,26.002,26.002,26.003,26.002,-0.057,0.051,-0.021,0.027,0.104,0.106,0.049,0.046,0,0,0,-0.011,0.023,0.27,0,0,0,0,0,0,false,0,1,0,true,0.033,0.059,0,0,1.099,26,23,0,0,0,0.001,0,6,5,3,1,false,0,true,false,25.996,25.996,26.025,26.025,1,25.984,26.122,26.075,26.144,25.988,25.992,26.044,26.035,26.127,25.986,26.144,26.055,false,-26.249,60.913,-449.017,-27.808,60.953,-449.018,-26.266,60.96,-452.613,-27.765,60.99,-452.613,0.026,1,0.013,0.026,1,0.013,0.02,1,0.004,0.02,1,0.004,0.004,0.013,-1,0.008,0.013,-1,0.003,0.004,-1,-0.003,0.005,-1,0.53,0,0,0,1.7,1.16.4,1,1,rss_formula_hybrid_2023,ks_nurburgring,rangarajanpraneeth,rangarajanpraneeth,rangarajanpraneeth,3,239.313,573674.625,13050,148,0.15,0.15,0.15,0.15,0.363,0.363,0.363,0.363,1.6,0,0,false,1,0,0,false,0,true,false,true,true,false,0,11,6,5077.904,layout_gp_a,4000000,false,false,rb20_1_verstappen,0,0,0,20
2369,AC_LIVE,AC_PRACTICE,0:11:400,-:--:---,-:--:---, ,0,1,11400,0,0,-15375.374,0.004,1,0,0,0,Soft (C3),1,0.062,-27.017,61.226,-450.975,0,AC_NO_FLAG,false,true,1,false,0,-180,3500,0,0,50,0,3701,0.016,0,0,0,0,0,0,0,0.072,0.069,0.034,0.047,1678.152,2104.083,2495.449,1998.025,17,17,15,15,0,0.001,0.006,-0.005,100,100,100,100,0,0,0,0,26.002,26.002,26.003,26.002,-0.057,0.051,-0.021,0.027,0.104,0.106,0.049,0.046,0,0,0,-0.011,0.023,0.27,0,0,0,0,0,0,false,0,1,0,true,0.033,0.059,0,0,1.099,26,23,0,0,0,0.002,0,6,5,3,1,false,0,true,false,25.996,25.996,26.025,26.025,1,25.984,26.122,26.075,26.144,25.988,25.992,26.044,26.035,26.127,25.986,26.144,26.055,false,-26.249,60.913,-449.017,-27.808,60.953,-449.018,-26.266,60.96,-452.613,-27.765,60.99,-452.613,0.026,1,0.013,0.026,1,0.013,0.02,1,0.004,0.02,1,0.004,0.004,0.013,-1,0.008,0.013,-1,0.003,0.004,-1,-0.003,0.005,-1,0.53,0,0,0,1.7,1.16.4,1,1,rss_formula_hybrid_2023,ks_nurburgring,rangarajanpraneeth,rangarajanpraneeth,rangarajanpraneeth,3,239.313,573674.625,13050,148,0.15,0.15,0.15,0.15,0.363,0.363,0.363,0.363,1.6,0,0,false,1,0,0,false,0,true,false,true,true,false,0,11,6,5077.904,layout_gp_a,4000000,false,false,rb20_1_verstappen,0,0,0,30
2371,AC_LIVE,AC_PRACTICE,0:11:406,-:--:---,-:--:---, ,0,1,11406,0,0,-15383.149,0.004,1,0,0,0,Soft (C3),1,0.062,-27.017,61.226,-450.975,0,AC_NO_FLAG,false,true,1,false,0,-180,3503,0,0,50,0,3701,0.016,0.001,0,0,0,0,0,0,0.072,0.069,0.034,0.048,1677.269,2103.862,2498.504,1995.885,17,17,15,15,0.001,0.001,-0.005,0.007,100,100,100,100,0,0,0,0,26.002,26.002,26.003,26.002,-0.057,0.051,-0.021,0.027,0.104,0.106,0.049,0.046,0,0,0,-0.011,0.023,0.27,0,0,0,0,0,0,false,0,1,0,true,0.033,0.059,0,0,1.099,26,23,0,0,0,0.002,0,6,5,3,1,false,0,true,false,25.996,25.996,26.025,26.025,1,25.984,26.122,26.075,26.144,25.988,25.992,26.044,26.035,26.127,25.986,26.144,26.055,false,-26.249,60.913,-449.017,-27.808,60.953,-449.018,-26.266,60.96,-452.613,-27.765,60.99,-452.613,0.026,1,0.013,0.026,1,0.013,0.02,1,0.004,0.02,1,0.004,0.004,0.013,-1,0.008,0.013,-1,0.003,0.004,-1,-0.003,0.005,-1,0.53,0,0,0,1.7,1.16.4,1,1,rss_formula_hybrid_2023,ks_nurburgring,rangarajanpraneeth,rangarajanpraneeth,rangarajanpraneeth,3,239.313,573674.625,13050,148,0.15,0.15,0.15,0.15,0.363,0.363,0.363,0.363,1.6,0,0,false,1,0,0,false,0,true,false,true,true,false,0,11,6,5077.904,layout_gp_a,4000000,false,false,rb20_1_verstappen,0,0,0,40
2373,AC_LIVE,AC_PRACTICE,0:11:415,-:--:---,-:--:---, ,0,1,11415,0,0,-15390.957,0.004,1,0,0,0,Soft (C3),1,0.062,-27.017,61.226,-450.975,0,AC_NO_FLAG,false,true,1,false,0,-180,3506,0,0,50,0,3701,0.016,0.002,0,0,0,0,0,0,0.072,0.069,0.034,0.047,1678.134,2100.722,2497.304,1996.036,17,17,15,15,0.001,0.001,0.007,-0.005,100,100,100,100,0,0,0,0,26.002,26.002,26.003,26.002,-0.057,0.051,-0.021,0.027,0.104,0.106,0.049,0.046,0,0,0,-0.011,0.023,0.27,0,0,0,0,0,0,false,0,1,0,true,0.033,0.059,0,0,1.099,26,23,0,0,0,0.002,0,6,5,3,1,false,0,true,false,25.996,25.996,26.025,26.025,1,25.984,26.122,26.075,26.144,25.988,25.992,26.044,26.035,26.127,25.986,26.144,26.055,false,-26.249,60.913,-449.017,-27.808,60.953,-449.018,-26.266,60.96,-452.613,-27.765,60.99,-452.613,0.026,1,0.013,0.026,1,0.013,0.02,1,0.004,0.02,1,0.004,0.004,0.013,-1,0.008,0.013,-1,0.003,0.004,-1,-0.003,0.005,-1,0.53,0,0,0,1.7,1.16.4,1,1,rss_formula_hybrid_2023,ks_nurburgring,rangarajanpraneeth,rangarajanpraneeth,rangarajanpraneeth,3,239.313,573674.625,13050,148,0.15,0.15,0.15,0.15,0.363,0.363,0.363,0.363,1.6,0,0,false,1,0,0,false,0,true,false,true,true,false,0,11,6,5077.904,layout_gp_a,4000000,false,false,rb20_1_verstappen,0,0,0,50
2377,AC_LIVE,AC_PRACTICE,0:11:430,-:--:---,-:--:---, ,0,1,11430,0,0,-15406.507,0.004,1,0,0,0,Soft (C3),1,0.062,-27.017,61.226,-450.975,0,AC_NO_FLAG,false,true,1,false,0,-180,3510,0,0,50,0,3701,0.016,0.002,0,0,0,0,0,0,0.071,0.069,0.034,0.047,1679.768,2101.395,2497.404,1997.14,17,17,15,15,0.001,0,0.007,-0.005,100,100,100,100,0,0,0,0,26.002,26.002,26.003,26.002,-0.057,0.051,-0.021,0.027,0.104,0.106,0.049,0.046,0,0,0,-0.011,0.023,0.27,0,0,0,0,0,0,false,0,1,0,true,0.033,0.059,0,0,1.099,26,23,0,0,0,0.002,0,6,5,3,1,false,0,true,false,25.996,25.996,26.025,26.025,1,25.984,26.123,26.075,26.144,25.988,25.992,26.044,26.035,26.127,25.986,26.144,26.055,false,-26.249,60.913,-449.017,-27.808,60.953,-449.018,-26.266,60.96,-452.613,-27.765,60.99,-452.613,0.026,1,0.013,0.026,1,0.013,0.02,1,0.004,0.02,1,0.004,0.004,0.013,-1,0.008,0.013,-1,0.003,0.004,-1,-0.003,0.005,-1,0.53,0,0,0,1.7,1.16.4,1,1,rss_formula_hybrid_2023,ks_nurburgring,rangarajanpraneeth,rangarajanpraneeth,rangarajanpraneeth,3,239.313,573674.625,13050,148,0.15,0.15,0.15,0.15,0.363,0.363,0.363,0.363,1.6,0,0,false,1,0,0,false,0,true,false,true,true,false,0,11,6,5077.904,layout_gp_a,4000000,false,false,rb20_1_verstappen,0,0,0,60
2379,AC_LIVE,AC_PRACTICE,0:11:439,-:--:---,-:--:---, ,0,1,11439,0,0,-15413.957,0.004,1,0,0,0,Soft (C3),1,0.062,-27.017,61.226,-450.975,0,AC_NO_FLAG,false,true,1,false,0,-180,3513,0,0,50,0,3701,0.016,0.001,0,0,0,0,0,0,0.072,0.068,0.033,0.048,1679.753,2104.039,2498.522,1996.216,17,17,15,15,0,0.001,-0.005,0.007,100,100,100,100,0,0,0,0,26.002,26.002,26.003,26.002,-0.057,0.051,-0.021,0.027,0.104,0.106,0.049,0.046,0,0,0,-0.011,0.023,0.27,0,0,0,0,0,0,false,0,1,0,true,0.033,0.059,0,0,1.099,26,23,0,0,0,0.001,0,6,5,3,1,false,0,true,false,25.996,25.996,26.025,26.025,1,25.984,26.123,26.075,26.144,25.988,25.992,26.044,26.035,26.127,25.986,26.144,26.055,false,-26.249,60.913,-449.017,-27.808,60.953,-449.018,-26.266,60.96,-452.613,-27.765,60.99,-452.613,0.026,1,0.013,0.026,1,0.013,0.02,1,0.004,0.02,1,0.004,0.004,0.013,-1,0.008,0.013,-1,0.003,0.004,-1,-0.003,0.005,-1,0.53,0,0,0,1.7,1.16.4,1,1,rss_formula_hybrid_2023,ks_nurburgring,rangarajanpraneeth,rangarajanpraneeth,rangarajanpraneeth,3,239.313,573674.625,13050,148,0.15,0.15,0.15,0.15,0.363,0.363,0.363,0.363,1.6,0,0,false,1,0,0,false,0,true,false,true,true,false,0,11,6,5077.904,layout_gp_a,4000000,false,false,rb20_1_verstappen,0,0,0,70
2381,AC_LIVE,AC_PRACTICE,0:11:445,-:--:---,-:--:---, ,0,1,11445,0,0,-15421.979,0.004,1,0,0,0,Soft (C3),1,0.062,-27.017,61.226,-450.975,0,AC_NO_FLAG,false,true,1,false,0,-180,3516,0,0,50,0,3701,0.016,0.001,0,0,0,0,0,0,0.072,0.069,0.034,0.048,1678.081,2101.19,2496.408,1996.045,17,17,15,15,0.001,0.001,0.006,-0.005,100,100,100,100,0,0,0,0,26.002,26.002,26.003,26.002,-0.057,0.051,-0.021,0.027,0.104,0.106,0.049,0.046,0,0,0,-0.011,0.023,0.27,0,0,0,0,0,0,false,0,1,0,true,0.033,0.059,0,0,1.099,26,23,0,0,0,0.002,0,6,5,3,1,false,0,true,false,25.996,25.996,26.025,26.025,1,25.984,26.123,26.075,26.144,25.988,25.992,26.044,26.035,26.127,25.986,26.144,26.055,false,-26.249,60.913,-449.017,-27.808,60.953,-449.018,-26.266,60.96,-452.613,-27.765,60.99,-452.613,0.026,1,0.013,0.026,1,0.013,0.02,1,0.004,0.02,1,0.004,0.004,0.013,-1,0.008,0.013,-1,0.003,0.004,-1,-0.003,0.005,-1,0.53,0,0,0,1.7,1.16.4,1,1,rss_formula_hybrid_2023,ks_nurburgring,rangarajanpraneeth,rangarajanpraneeth,rangarajanpraneeth,3,239.313,573674.625,13050,148,0.15,0.15,0.15,0.15,0.363,0.363,0.363,0.363,1.6,0,0,false,1,0,0,false,0,true,false,true,true,false,0,11,6,5077.904,layout_gp_a,4000000,false,false,rb20_1_verstappen,0,0,0,80
2383,AC_LIVE,AC_PRACTICE,0:11:454,-:--:---,-:--:---, ,0,1,11454,0,0,-15429.573,0.004,1,0,0,0,Soft (C3),1,0.062,-27.017,61.226,-450.975,0,AC_NO_FLAG,false,true,1,false,0,-180,3519,0,0,50,0,3701,0.016,0,0,0,0,0,0,0,0.071,0.069,0.034,0.047,1679.797,2101.352,2497.459,1997.079,17,17,15,15,0.001,0,-0.005,0.006,100,100,100,100,0,0,0,0,26.002,26.002,26.003,26.002,-0.057,0.051,-0.021,0.027,0.104,0.106,0.049,0.046,0,0,0,-0.011,0.023,0.27,0,0,0,0,0,0,false,0,1,0,true,0.033,0.059,0,0,1.099,26,23,0,0,0,0.002,0,6,5,3,1,false,0,true,false,25.996,25.996,26.025,26.025,1,25.984,26.123,26.075,26.144,25.988,25.992,26.044,26.035,26.127,25.986,26.144,26.055,false,-26.249,60.913,-449.017,-27.808,60.953,-449.018,-26.266,60.96,-452.613,-27.765,60.99,-452.613,0.026,1,0.013,0.026,1,0.013,0.02,1,0.004,0.02,1,0.004,0.004,0.013,-1,0.008,0.013,-1,0.003,0.004,-1,-0.003,0.005,-1,0.53,0,0,0,1.7,1.16.4,1,1,rss_formula_hybrid_2023,ks_nurburgring,rangarajanpraneeth,rangarajanpraneeth,rangarajanpraneeth,3,239.313,573674.625,13050,148,0.15,0.15,0.15,0.15,0.363,0.363,0.363,0.363,1.6,0,0,false,1,0,0,false,0,true,false,true,true,false,0,11,6,5077.904,layout_gp_a,4000000,false,false,rb20_1_verstappen,0,0,0,90
2387,AC_LIVE,AC_PRACTICE,0:11:469,-:--:---,-:--:---, ,0,1,11469,0,0,-15445.182,0.004,1,0,0,0,Soft (C3),1,0.062,-27.017,61.226,-450.975,0,AC_NO_FLAG,false,true,1,false,0,-180,3522,0,0,50,0,3701,0.016,0,0,0,0,0,0,0,0.072,0.068,0.033,0.048,1678.008,2102.266,2494.193,1998.064,17,17,15,15,0,0.001,0.007,-0.005,100,100,100,100,0,0,0,0,26.002,26.002,26.003,26.002,-0.057,0.051,-0.021,0.027,0.104,0.106,0.049,0.046,0,0,0,-0.011,0.023,0.27,0,0,0,0,0,0,false,0,1,0,true,0.033,0.059,0,0,1.099,26,23,0,0,0,0.001,0,6,5,3,1,false,0,true,false,25.996,25.996,26.025,26.025,1,25.984,26.123,26.075,26.144,25.988,25.992,26.045,26.035,26.127,25.986,26.144,26.055,false,-26.249,60.913,-449.017,-27.808,60.953,-449.018,-26.266,60.96,-452.613,-27.765,60.99,-452.613,0.026,1,0.013,0.026,1,0.013,0.02,1,0.004,0.02,1,0.004,0.004,0.013,-1,0.008,0.013,-1,0.003,0.004,-1,-0.003,0.005,-1,0.53,0,0,0,1.7,1.16.4,1,1,rss_formula_hybrid_2023,ks_nurburgring,rangarajanpraneeth,rangarajanpraneeth,rangarajanpraneeth,3,239.313,573674.625,13050,148,0.15,0.15,0.15,0.15,0.363,0.363,0.363,0.363,1.6,0,0,false,1,0,0,false,0,true,false,true,true,false,0,11,6,5077.904,layout_gp_a,4000000,false,false,rb20_1_verstappen,0,0,0,100
2389,AC_LIVE,AC_PRACTICE,0:11:478,-:--:---,-:--:---, ,0,1,11478,0,0,-15452.963,0.004,1,0,0,0,Soft (C3),1,0.062,-27.017,61.226,-450.975,0,AC_NO_FLAG,false,true,1,false,0,-180,3526,0,0,50,0,3701,0.016,0,0,0,0,0,0,0,0.071,0.069,0.034,0.047,1679.915,2100.381,2496.314,1995.258,17,17,15,15,0.001,0.001,0.007,-0.006,100,100,100,100,0,0,0,0,26.002,26.002,26.003,26.002,-0.057,0.051,-0.021,0.027,0.104,0.106,0.049,0.046,0,0,0,-0.011,0.023,0.27,0,0,0,0,0,0,false,0,1,0,true,0.033,0.059,0,0,1.099,26,23,0,0,0,0.002,0,6,5,3,1,false,0,true,false,25.996,25.996,26.025,26.025,1,25.984,26.123,26.075,26.145,25.989,25.992,26.045,26.035,26.127,25.986,26.144,26.055,false,-26.249,60.913,-449.017,-27.808,60.953,-449.018,-26.266,60.96,-452.613,-27.765,60.99,-452.613,0.026,1,0.013,0.026,1,0.013,0.02,1,0.004,0.02,1,0.004,0.004,0.013,-1,0.008,0.013,-1,0.003,0.004,-1,-0.003,0.005,-1,0.53,0,0,0,1.7,1.16.4,1,1,rss_formula_hybrid_2023,ks_nurburgring,rangarajanpraneeth,rangarajanpraneeth,rangarajanpraneeth,3,239.313,573674.625,13050,148,0.15,0.15,0.15,0.15,0.363,0.363,0.363,0.363,1.6,0,0,false,1,0,0,false,0,true,false,true,true,false,0,11,6,5077.904,layout_gp_a,4000000,false,false,rb20_1_verstappen,0,0,0,110
2391,AC_LIVE,AC_PRACTICE,0:11:484,-:--:---,-:--:---, ,0,1,11484,0,0,-15460.6,0.004,1,0,0,0,Soft (C3),1,0.062,-27.017,61.226,-450.975,0,AC_NO_FLAG,false,true,1,false,0,-180,3529,0,0,50,0,3701,0.016,0.001,0,0,0,0,0,0,0.071,0.069,0.035,0.046,1677.883,2101.555,2498.501,1997.269,17,17,15,15,0.001,0,-0.005,0.006,100,100,100,100,0,0,0,0,26.002,26.002,26.003,26.002,-0.057,0.051,-0.021,0.027,0.104,0.106,0.049,0.046,0,0,0,-0.011,0.023,0.27,0,0,0,0,0,0,false,0,1,0,true,0.033,0.059,0,0,1.099,26,23,0,0,0,0.002,0,6,5,3,1,false,0,true,false,25.996,25.996,26.025,26.025,1,25.984,26.123,26.075,26.145,25.989,25.992,26.045,26.035,26.128,25.986,26.145,26.055,false,-26.249,60.913,-449.017,-27.808,60.953,-449.018,-26.266,60.96,-452.613,-27.765,60.99,-452.613,0.026,1,0.013,0.026,1,0.013,0.02,1,0.004,0.02,1,0.004,0.004,0.013,-1,0.008,0.013,-1,0.003,0.004,-1,-0.003,0.005,-1,0.53,0,0,0,1.7,1.16.4,1,1,rss_formula_hybrid_2023,ks_nurburgring,rangarajanpraneeth,rangarajanpraneeth,rangarajanpraneeth,3,239.313,573674.625,13050,148,0.15,0.15,0.15,0.15,0.363,0.363,0.363,0.363,1.6,0,0,false,1,0,0,false,0,true,false,true,true,false,0,11,6,5077.904,layout_gp_a,4000000,false,false,rb20_1_verstappen,0,0,0,120
2395,AC_LIVE,AC_PRACTICE,0:11:499,-:--:---,-:--:---, ,0,1,11499,0,0,-15475.942,0.004,1,0,0,0,Soft (C3),1,0.062,-27.017,61.226,-450.975,0,AC_NO_FLAG,false,true,1,false,0,-180,3533,0,0,50,0,3701,0.016,0.001,0,0,0,0,0,0,0.071,0.069,0.034,0.047,1678.198,2103.081,2497.352,1997.161,17,17,15,15,0.001,0.001,-0.004,0.007,100,100,100,100,0,0,0,0,26.002,26.002,26.003,26.002,-0.057,0.051,-0.021,0.027,0.104,0.106,0.049,0.046,0,0,0,-0.011,0.023,0.27,0,0,0,0,0,0,false,0,1,0,true,0.033,0.059,0,0,1.099,26,23,0,0,0,0.002,0,6,5,3,1,false,0,true,false,25.996,25.996,26.025,26.025,1,25.984,26.123,26.075,26.145,25.989,25.992,26.045,26.035,26.128,25.986,26.145,26.055,false,-26.249,60.913,-449.017,-27.808,60.953,-449.018,-26.266,60.96,-452.613,-27.765,60.99,-452.613,0.026,1,0.013,0.026,1,0.013,0.02,1,0.004,0.02,1,0.004,0.004,0.013,-1,0.008,0.013,-1,0.003,0.004,-1,-0.003,0.005,-1,0.53,0,0,0,1.7,1.16.4,1,1,rss_formula_hybrid_2023,ks_nurburgring,rangarajanpraneeth,rangarajanpraneeth,rangarajanpraneeth,3,239.313,573674.625,13050,148,0.15,0.15,0.15,0.15,0.363,0.363,0.363,0.363,1.6,0,0,false,1,0,0,false,0,true,false,true,true,false,0,11,6,5077.904,layout_gp_a,4000000,false,false,rb20_1_verstappen,0,0,0,130
2397,AC_LIVE,AC_PRACTICE,0:11:508,-:--:---,-:--:---, ,0,1,11508,0,0,-15483.868,0.004,1,0,0,0,Soft (C3),1,0.062,-27.017,61.226,-450.975,0,AC_NO_FLAG,false,true,1,false,0,-180,3536,0,0,50,0,3701,0.016,0.001,0,0,0,0,0,0,0.072,0.068,0.034,0.048,1678.221,2101.384,2498.406,1997.203,17,17,15,15,0.001,0.001,0.006,-0.005,100,100,100,100,0,0,0,0,26.002,26.002,26.003,26.002,-0.057,0.051,-0.021,0.027,0.104,0.106,0.049,0.046,0,0,0,-0.011,0.023,0.27,0,0,0,0,0,0,false,0,1,0,true,0.033,0.059,0,0,1.099,26,23,0,0,0,0.002,0,6,5,3,1,false,0,true,false,25.996,25.996,26.025,26.025,1,25.984,26.123,26.076,26.145,25.989,25.992,26.045,26.035,26.128,25.986,26.145,26.056,false,-26.249,60.913,-449.017,-27.808,60.953,-449.018,-26.266,60.96,-452.613,-27.765,60.99,-452.613,0.026,1,0.013,0.026,1,0.013,0.02,1,0.004,0.02,1,0.004,0.004,0.013,-1,0.008,0.013,-1,0.003,0.004,-1,-0.003,0.005,-1,0.53,0,0,0,1.7,1.16.4,1,1,rss_formula_hybrid_2023,ks_nurburgring,rangarajanpraneeth,rangarajanpraneeth,rangarajanpraneeth,3,239.313,573674.625,13050,148,0.15,0.15,0.15,0.15,0.363,0.363,0.363,0.363,1.6,0,0,false,1,0,0,false,0,true,false,true,true,false,0,11,6,5077.904,layout_gp_a,4000000,false,false,rb20_1_verstappen,0,0,0,140
2399,AC_LIVE,AC_PRACTICE,0:11:517,-:--:---,-:--:---, ,0,1,11517,0,0,-15491.471,0.004,1,0,0,0,Soft (C3),1,0.062,-27.017,61.226,-450.975,0,AC_NO_FLAG,false,true,1,false,0,-180,3540,0,0,50,0,3701,0.016,0.001,0,0,0,0,0,0,0.071,0.069,0.034,0.047,1679.119,2102.214,2497.386,1995.153,17,17,15,15,0.001,0.001,0.008,-0.005,100,100,100,100,0,0,0,0,26.002,26.002,26.003,26.002,-0.057,0.051,-0.021,0.027,0.104,0.106,0.049,0.046,0,0,0,-0.011,0.023,0.27,0,0,0,0,0,0,false,0,1,0,true,0.033,0.059,0,0,1.099,26,23,0,0,0,0.002,0,6,5,3,1,false,0,true,false,25.996,25.996,26.025,26.025,1,25.984,26.123,26.076,26.145,25.989,25.992,26.045,26.035,26.128,25.986,26.145,26.056,false,-26.249,60.913,-449.017,-27.808,60.953,-449.018,-26.266,60.96,-452.613,-27.765,60.99,-452.613,0.026,1,0.013,0.026,1,0.013,0.02,1,0.004,0.02,1,0.004,0.004,0.013,-1,0.008,0.013,-1,0.003,0.004,-1,-0.003,0.005,-1,0.53,0,0,0,1.7,1.16.4,1,1,rss_formula_hybrid_2023,ks_nurburgring,rangarajanpraneeth,rangarajanpraneeth,rangarajanpraneeth,3,239.313,573674.625,13050,148,0.15,0.15,0.15,0.15,0.363,0.363,0.363,0.363,1.6,0,0,false,1,0,0,false,0,true,false,true,true,false,0,11,6,5077.904,layout_gp_a,4000000,false,false,rb20_1_verstappen,0,0,0,150
2401,AC_LIVE,AC_PRACTICE,0:11:523,-:--:---,-:--:---, ,0,1,11523,0,0,-15499.448,0.004,1,0,0,0,Soft (C3),1,0.062,-27.017,61.226,-450.975,0,AC_NO_FLAG,false,true,1,false,0,-180,3543,0,0,50,0,3701,0.016,0.001,0,0,0,0,0,0,0.071,0.069,0.034,0.047,1679.025,2102.083,2499.503,1996.24,17,17,15,15,0.001,0.001,-0.005,0.007,100,100,100,100,0,0,0,0,26.002,26.002,26.003,26.002,-0.057,0.051,-0.021,0.027,0.104,0.106,0.049,0.046,0,0,0,-0.011,0.023,0.27,0,0,0,0,0,0,false,0,1,0,true,0.033,0.059,0,0,1.099,26,23,0,0,0,0.002,0,6,5,3,1,false,0,true,false,25.996,25.996,26.025,26.025,1,25.984,26.123,26.076,26.145,25.989,25.992,26.045,26.035,26.128,25.986,26.145,26.056,false,-26.249,60.913,-449.017,-27.808,60.953,-449.018,-26.266,60.96,-452.613,-27.765,60.99,-452.613,0.026,1,0.013,0.026,1,0.013,0.02,1,0.004,0.02,1,0.004,0.004,0.013,-1,0.008,0.013,-1,0.003,0.004,-1,-0.003,0.005,-1,0.53,0,0,0,1.7,1.16.4,1,1,rss_formula_hybrid_2023,ks_nurburgring,rangarajanpraneeth,rangarajanpraneeth,rangarajanpraneeth,3,239.313,573674.625,13050,148,0.15,0.15,0.15,0.15,0.363,0.363,0.363,0.363,1.6,0,0,false,1,0,0,false,0,true,false,true,true,false,0,11,6,5077.904,layout_gp_a,4000000,false,false,rb20_1_verstappen,0,0,0,160
2405,AC_LIVE,AC_PRACTICE,0:11:538,-:--:---,-:--:---, ,0,1,11538,0,0,-15514.479,0.004,1,0,0,0,Soft (C3),1,0.062,-27.017,61.226,-450.975,0,AC_NO_FLAG,false,true,1,false,0,-180,3546,0,0,50,0,3701,0.016,0,0,0,0,0,0,0,0.072,0.068,0.034,0.047,1679.016,2102.135,2496.244,1997.147,17,17,15,15,0,0,0.005,-0.006,100,100,100,100,0,0,0,0,26.002,26.002,26.003,26.002,-0.057,0.051,-0.021,0.027,0.104,0.106,0.049,0.046,0,0,0,-0.011,0.023,0.27,0,0,0,0,0,0,false,0,1,0,true,0.033,0.059,0,0,1.099,26,23,0,0,0,0.002,0,6,5,3,1,false,0,true,false,25.996,25.996,26.025,26.025,1,25.984,26.123,26.076,26.145,25.989,25.992,26.045,26.035,26.128,25.986,26.145,26.056,false,-26.249,60.913,-449.017,-27.808,60.953,-449.018,-26.266,60.96,-452.613,-27.765,60.99,-452.613,0.026,1,0.013,0.026,1,0.013,0.02,1,0.004,0.02,1,0.004,0.004,0.013,-1,0.008,0.013,-1,0.003,0.004,-1,-0.003,0.005,-1,0.53,0,0,0,1.7,1.16.4,1,1,rss_formula_hybrid_2023,ks_nurburgring,rangarajanpraneeth,rangarajanpraneeth,rangarajanpraneeth,3,239.313,573674.625,13050,148,0.15,0.15,0.15,0.15,0.363,0.363,0.363,0.363,1.6,0,0,false,1,0,0,false,0,true,false,true,true,false,0,11,6,5077.904,layout_gp_a,4000000,false,false,rb20_1_verstappen,0,0,0,170
2407,AC_LIVE,AC_PRACTICE,0:11:547,-:--:---,-:--:---, ,0,1,11547,0,0,-15521.886,0.004,1,0,0,0,Soft (C3),1,0.062,-27.017,61.226,-450.975,0,AC_NO_FLAG,false,true,1,false,0,-180,3550,0,0,50,0,3701,0.016,0.001,0,0,0,0,0,0,0.072,0.068,0.033,0.048,1676.042,2104.118,2497.358,1996.17,17,17,15,15,0,0.001,0.007,-0.005,100,100,100,100,0,0,0,0,26.002,26.002,26.003,26.002,-0.057,0.051,-0.021,0.027,0.104,0.106,0.049,0.046,0,0,0,-0.011,0.023,0.27,0,0,0,0,0,0,false,0,1,0,true,0.033,0.059,0,0,1.099,26,23,0,0,0,0.002,0,6,5,3,1,false,0,true,false,25.996,25.996,26.025,26.025,1,25.984,26.124,26.076,26.145,25.989,25.992,26.045,26.035,26.128,25.986,26.145,26.056,false,-26.249,60.913,-449.017,-27.809,60.953,-449.018,-26.266,60.96,-452.613,-27.765,60.99,-452.613,0.026,1,0.013,0.026,1,0.013,0.02,1,0.004,0.02,1,0.004,0.004,0.013,-1,0.008,0.013,-1,0.003,0.004,-1,-0.003,0.005,-1,0.53,0,0,0,1.7,1.16.4,1,1,rss_formula_hybrid_2023,ks_nurburgring,rangarajanpraneeth,rangarajanpraneeth,rangarajanpraneeth,3,239.313,573674.625,13050,148,0.15,0.15,0.15,0.15,0.363,0.363,0.363,0.363,1.6,0,0,false,1,0,0,false,0,true,false,true,true,false,0,11,6,5077.904,layout_gp_a,4000000,false,false,rb20_1_verstappen,0,0,0,180
2411,AC_LIVE,AC_PRACTICE,0:11:562,-:--:---,-:--:---, ,0,1,11562,0,0,-15536.965,0.004,1,0,0,0,Soft (C3),1,0.062,-27.017,61.226,-450.975,0,AC_NO_FLAG,false,true,1,false,0,-180,3553,0,0,50,0,3701,0.016,0.001,0,0,0,0,0,0,0.071,0.069,0.034,0.047,1677.949,2100.596,2497.361,1996.164,17,17,15,15,0.001,0,-0.005,0.007,100,100,100,100,0,0,0,0,26.002,26.002,26.003,26.002,-0.057,0.051,-0.021,0.027,0.104,0.106,0.049,0.046,0,0,0,-0.011,0.023,0.27,0,0,0,0,0,0,false,0,1,0,true,0.033,0.059,0,0,1.099,26,23,0,0,0,0.002,0,6,5,3,1,false,0,true,false,25.996,25.996,26.025,26.025,1,25.984,26.124,26.076,26.145,25.989,25.992,26.045,26.035,26.128,25.986,26.145,26.056,false,-26.249,60.913,-449.017,-27.808,60.953,-449.018,-26.266,60.96,-452.613,-27.765,60.99,-452.613,0.026,1,0.013,0.026,1,0.013,0.02,1,0.004,0.02,1,0.004,0.004,0.013,-1,0.008,0.013,-1,0.003,0.004,-1,-0.003,0.005,-1,0.53,0,0,0,1.7,1.16.4,1,1,rss_formula_hybrid_2023,ks_nurburgring,rangarajanpraneeth,rangarajanpraneeth,rangarajanpraneeth,3,239.313,573674.625,13050,148,0.15,0.15,0.15,0.15,0.363,0.363,0.363,0.363,1.6,0,0,false,1,0,0,false,0,true,false,true,true,false,0,11,6,5077.904,layout_gp_a,4000000,false,false,rb20_1_verstappen,0,0,0,190
2413,AC_LIVE,AC_PRACTICE,0:11:565,-:--:---,-:--:---, ,0,1,11565,0,0,-15544.588,0.004,1,0,0,0,Soft (C3),1,0.062,-27.017,61.226,-450.975,0,AC_NO_FLAG,false,true,1,false,0,-180,3555,0,0,50,0,3701,0.016,0,0,0,0,0,0,0,0.071,0.07,0.033,0.048,1678.851,2101.583,2499.562,1996.1,17,17,15,15,0.001,0,-0.006,0.005,100,100,100,100,0,0,0,0,26.002,26.002,26.003,26.002,-0.057,0.051,-0.021,0.027,0.104,0.106,0.049,0.046,0,0,0,-0.011,0.023,0.27,0,0,0,0,0,0,false,0,1,0,true,0.033,0.059,0,0,1.099,26,23,0,0,0,0.002,0,6,5,3,1,false,0,true,false,25.996,25.996,26.025,26.025,1,25.984,26.124,26.076,26.145,25.989,25.992,26.045,26.035,26.128,25.986,26.145,26.056,false,-26.249,60.913,-449.017,-27.808,60.953,-449.018,-26.266,60.96,-452.613,-27.765,60.99,-452.613,0.026,1,0.013,0.026,1,0.013,0.02,1,0.004,0.02,1,0.004,0.004,0.013,-1,0.007,0.013,-1,0.003,0.004,-1,-0.003,0.005,-1,0.53,0,0,0,1.7,1.16.4,1,1,rss_formula_hybrid_2023,ks_nurburgring,rangarajanpraneeth,rangarajanpraneeth,rangarajanpraneeth,3,239.313,573674.625,13050,148,0.15,0.15,0.15,0.15,0.363,0.363,0.363,0.363,1.6,0,0,false,1,0,0,false,0,true,false,true,true,false,0,11,6,5077.904,layout_gp_a,4000000,false,false,rb20_1_verstappen,0,0,0,200
2415,AC_LIVE,AC_PRACTICE,0:11:577,-:--:---,-:--:---, ,0,1,11577,0,0,-15552.008,0.004,1,0,0,0,Soft (C3),1,0.062,-27.017,61.226,-450.975,0,AC_NO_FLAG,false,true,1,false,0,-180,3560,0,0,50,0,3701,0.015,0.002,0,0,0,0,0,0,0.071,0.069,0.034,0.047,1678.672,2103.464,2496.332,1997.036,17,17,15,15,0,0.001,0.007,-0.004,100,100,100,100,0,0,0,0,26.002,26.002,26.003,26.002,-0.057,0.051,-0.021,0.027,0.104,0.106,0.049,0.046,0,0,0,-0.011,0.023,0.27,0,0,0,0,0,0,false,0,1,0,true,0.033,0.059,0,0,1.099,26,23,0,0,0,0.002,0,6,5,3,1,false,0,true,false,25.996,25.996,26.025,26.025,1,25.984,26.124,26.076,26.145,25.989,25.992,26.045,26.035,26.128,25.986,26.145,26.056,false,-26.249,60.913,-449.017,-27.808,60.953,-449.018,-26.266,60.96,-452.613,-27.765,60.99,-452.613,0.026,1,0.013,0.026,1,0.013,0.02,1,0.004,0.02,1,0.004,0.004,0.013,-1,0.007,0.013,-1,0.003,0.004,-1,-0.003,0.005,-1,0.53,0,0,0,1.7,1.16.4,1,1,rss_formula_hybrid_2023,ks_nurburgring,rangarajanpraneeth,rangarajanpraneeth,rangarajanpraneeth,3,239.313,573674.625,13050,148,0.15,0.15,0.15,0.15,0.363,0.363,0.363,0.363,1.6,0,0,false,1,0,0,false,0,true,false,true,true,false,0,11,6,5077.904,layout_gp_a,4000000,false,false,rb20_1_verstappen,0,0,0,210
2419,AC_LIVE,AC_PRACTICE,0:11:592,-:--:---,-:--:---, ,0,1,11592,0,0,-15567.007,0.004,1,0,0,0,Soft (C3),1,0.062,-27.017,61.226,-450.975,0,AC_NO_FLAG,false,true,1,false,0,-180,3563,0,0,50,0,3701,0.015,0.001,0,0,0,0,0,0,0.072,0.068,0.034,0.048,1677.131,2102.535,2496.403,1996.034,17,17,15,15,0,0,-0.006,0.006,100,100,100,100,0,0,0,0,26.002,26.002,26.003,26.002,-0.057,0.051,-0.021,0.027,0.104,0.106,0.049,0.046,0,0,0,-0.011,0.023,0.27,0,0,0,0,0,0,false,0,1,0,true,0.033,0.059,0,0,1.099,26,23,0,0,0,0.002,0,6,5,3,1,false,0,true,false,25.996,25.996,26.025,26.025,1,25.984,26.124,26.076,26.146,25.989,25.992,26.045,26.035,26.128,25.986,26.145,26.056,false,-26.249,60.913,-449.017,-27.808,60.953,-449.018,-26.266,60.96,-452.613,-27.765,60.99,-452.613,0.026,1,0.013,0.026,1,0.013,0.02,1,0.004,0.02,1,0.004,0.004,0.013,-1,0.007,0.013,-1,0.003,0.004,-1,-0.003,0.005,-1,0.53,0,0,0,1.7,1.16.4,1,1,rss_formula_hybrid_2023,ks_nurburgring,rangarajanpraneeth,rangarajanpraneeth,rangarajanpraneeth,3,239.313,573674.625,13050,148,0.15,0.15,0.15,0.15,0.363,0.363,0.363,0.363,1.6,0,0,false,1,0,0,false,0,true,false,true,true,false,0,11,6,5077.904,layout_gp_a,4000000,false,false,rb20_1_verstappen,0,0,0,220
2421,AC_LIVE,AC_PRACTICE,0:11:598,-:--:---,-:--:---, ,0,1,11598,0,0,-15574.662,0.004,1,0,0,0,Soft (C3),1,0.062,-27.017,61.226,-450.975,0,AC_NO_FLAG,false,true,1,false,0,-180,3566,0,0,50,0,3701,0.015,0.001,0,0,0,0,0,0,0.072,0.068,0.033,0.048,1678.408,2105.036,2496.417,1997.196,17,17,15,15,0.001,0.001,0.006,-0.005,100,100,100,100,0,0,0,0,26.002,26.002,26.003,26.002,-0.057,0.051,-0.021,0.027,0.104,0.106,0.049,0.046,0,0,0,-0.011,0.023,0.27,0,0,0,0,0,0,false,0,1,0,true,0.033,0.059,0,0,1.099,26,23,0,0,0,0.002,0,6,5,3,1,false,0,true,false,25.996,25.996,26.025,26.025,1,25.984,26.124,26.076,26.146,25.989,25.992,26.045,26.035,26.129,25.986,26.146,26.056,false,-26.249,60.913,-449.017,-27.808,60.953,-449.018,-26.266,60.96,-452.613,-27.765,60.99,-452.613,0.026,1,0.013,0.026,1,0.013,0.02,1,0.004,0.02,1,0.004,0.004,0.013,-1,0.007,0.013,-1,0.003,0.004,-1,-0.003,0.005,-1,0.53,0,0,0,1.7,1.16.4,1,1,rss_formula_hybrid_2023,ks_nurburgring,rangarajanpraneeth,rangarajanpraneeth,rangarajanpraneeth,3,239.313,573674.625,13050,148,0.15,0.15,0.15,0.15,0.363,0.363,0.363,0.363,1.6,0,0,false,1,0,0,false,0,true,false,true,true,false,0,11,6,5077.904,layout_gp_a,4000000,false,false,rb20_1_verstappen,0,0,0,230
2423,AC_LIVE,AC_PRACTICE,0:11:607,-:--:---,-:--:---, ,0,1,11607,0,0,-15582.23,0.004,1,0,0,0,Soft (C3),1,0.062,-27.017,61.226,-450.975,0,AC_NO_FLAG,false,true,1,false,0,-180,3569,0,0,50,0,3701,0.015,0.002,0,0,0,0,0,0,0.071,0.069,0.035,0.047,1676.635,2100.822,2497.447,1997.14,17,17,15,15,0.001,0.001,-0.005,0.007,100,100,100,100,0,0,0,0,26.002,26.002,26.003,26.002,-0.057,0.051,-0.021,0.027,0.104,0.106,0.049,0.046,0,0,0,-0.011,0.023,0.27,0,0,0,0,0,0,false,0,1,0,true,0.033,0.059,0,0,1.099,26,23,0,0,0,0.002,0,6,5,3,1,false,0,true,false,25.996,25.996,26.025,26.025,1,25.984,26.124,26.076,26.146,25.989,25.992,26.045,26.035,26.129,25.986,26.146,26.056,false,-26.249,60.913,-449.017,-27.808,60.953,-449.018,-26.266,60.96,-452.613,-27.765,60.99,-452.613,0.026,1,0.013,0.026,1,0.013,0.02,1,0.004,0.02,1,0.004,0.004,0.013,-1,0.007,0.013,-1,0.003,0.004,-1,-0.003,0.005,-1,0.53,0,0,0,1.7,1.16.4,1,1,rss_formula_hybrid_2023,ks_nurburgring,rangarajanpraneeth,rangarajanpraneeth,rangarajanpraneeth,3,239.313,573674.625,13050,148,0.15,0.15,0.15,0.15,0.363,0.363,0.363,0.363,1.6,0,0,false,1,0,0,false,0,true,false,true,true,false,0,11,6,5077.904,layout_gp_a,4000000,false,false,rb20_1_verstappen,0,0,0,240
2425,AC_LIVE,AC_PRACTICE,0:11:613,-:--:---,-:--:---, ,0,1,11613,0,0,-15589.823,0.004,1,0,0,0,Soft (C3),1,0.062,-27.017,61.226,-450.975,0,AC_NO_FLAG,false,true,1,false,0,-180,3573,0,0,50,0,3701,0.015,0.001,0,0,0,0,0,0,0.072,0.069,0.033,0.048,1676.78,2104.224,2498.552,1995.076,17,17,15,15,0.001,0,-0.005,0.006,100,100,100,100,0,0,0,0,26.002,26.002,26.003,26.002,-0.057,0.051,-0.021,0.027,0.104,0.106,0.049,0.046,0,0,0,-0.011,0.023,0.27,0,0,0,0,0,0,false,0,1,0,true,0.033,0.059,0,0,1.099,26,23,0,0,0,0.002,0,6,5,3,1,false,0,true,false,25.996,25.996,26.025,26.025,1,25.984,26.124,26.076,26.146,25.989,25.993,26.045,26.036,26.129,25.986,26.146,26.056,false,-26.249,60.913,-449.017,-27.808,60.953,-449.018,-26.266,60.96,-452.613,-27.765,60.99,-452.613,0.026,1,0.013,0.026,1,0.013,0.02,1,0.004,0.02,1,0.004,0.004,0.013,-1,0.007,0.013,-1,0.003,0.004,-1,-0.003,0.005,-1,0.53,0,0,0,1.7,1.16.4,1,1,rss_formula_hybrid_2023,ks_nurburgring,rangarajanpraneeth,rangarajanpraneeth,rangarajanpraneeth,3,239.313,573674.625,13050,148,0.15,0.15,0.15,0.15,0.363,0.363,0.363,0.363,1.6,0,0,false,1,0,0,false,0,true,false,true,true,false,0,11,6,5077.904,layout_gp_a,4000000,false,false,rb20_1_verstappen,0,0,0,250
2429,AC_LIVE,AC_PRACTICE,0:11:628,-:--:---,-:--:---, ,0,1,11628,0,0,-15604.824,0.004,1,0,0,0,Soft (C3),1,0.062,-27.017,61.226,-450.975,0,AC_NO_FLAG,false,true,1,false,0,-180,3576,0,0,50,0,3701,0.015,0.002,0,0,0,0,0,0,0.071,0.069,0.035,0.047,1676.722,2102.423,2496.289,1998.208,17,17,15,15,0.001,0,0.007,-0.005,100,100,100,100,0,0,0,0,26.002,26.002,26.003,26.002,-0.057,0.051,-0.021,0.027,0.104,0.106,0.049,0.046,0,0,0,-0.011,0.023,0.27,0,0,0,0,0,0,false,0,1,0,true,0.033,0.059,0,0,1.099,26,23,0,0,0,0.002,0,6,5,3,1,false,0,true,false,25.996,25.996,26.025,26.025,1,25.984,26.124,26.076,26.146,25.989,25.993,26.045,26.036,26.129,25.986,26.146,26.056,false,-26.249,60.913,-449.017,-27.808,60.953,-449.018,-26.266,60.96,-452.613,-27.765,60.99,-452.613,0.026,1,0.013,0.026,1,0.013,0.02,1,0.004,0.02,1,0.004,0.004,0.013,-1,0.007,0.013,-1,0.003,0.004,-1,-0.003,0.005,-1,0.53,0,0,0,1.7,1.16.4,1,1,rss_formula_hybrid_2023,ks_nurburgring,rangarajanpraneeth,rangarajanpraneeth,rangarajanpraneeth,3,239.313,573674.625,13050,148,0.15,0.15,0.15,0.15,0.363,0.363,0.363,0.363,1.6,0,0,false,1,0,0,false,0,true,false,true,true,false,0,11,6,5077.904,layout_gp_a,4000000,false,false,rb20_1_verstappen,0,0,0,260
2431,AC_LIVE,AC_PRACTICE,0:11:637,-:--:---,-:--:---, ,0,1,11637,0,0,-15612.257,0.004,1,0,0,0,Soft (C3),1,0.062,-27.017,61.226,-450.975,0,AC_NO_FLAG,false,true,1,false,0,-180,3580,0,0,50,0,3701,0.015,0.001,0,0,0,0,0,0,0.072,0.069,0.034,0.048,1677.696,2102.498,2497.363,1996.123,17,17,15,15,0,0.001,0.008,-0.004,100,100,100,100,0,0,0,0,26.002,26.002,26.003,26.002,-0.057,0.051,-0.021,0.027,0.104,0.106,0.049,0.046,0,0,0,-0.011,0.023,0.27,0,0,0,0,0,0,false,0,1,0,true,0.033,0.059,0,0,1.099,26,23,0,0,0,0.002,0,6,5,3,1,false,0,true,false,25.996,25.996,26.025,26.025,1,25.984,26.124,26.076,26.146,25.989,25.993,26.045,26.036,26.129,25.986,26.146,26.056,false,-26.249,60.913,-449.017,-27.808,60.953,-449.018,-26.266,60.96,-452.613,-27.765,60.99,-452.613,0.026,1,0.013,0.026,1,0.013,0.02,1,0.004,0.02,1,0.004,0.004,0.013,-1,0.007,0.013,-1,0.003,0.004,-1,-0.003,0.005,-1,0.53,0,0,0,1.7,1.16.4,1,1,rss_formula_hybrid_2023,ks_nurburgring,rangarajanpraneeth,rangarajanpraneeth,rangarajanpraneeth,3,239.313,573674.625,13050,148,0.15,0.15,0.15,0.15,0.363,0.363,0.363,0.363,1.6,0,0,false,1,0,0,false,0,true,false,true,true,false,0,11,6,5077.904,layout_gp_a,4000000,false,false,rb20_1_verstappen,0,0,0,270
2433,AC_LIVE,AC_PRACTICE,0:11:643,-:--:---,-:--:---, ,0,1,11643,0,0,-15619.945,0.004,1,0,0,0,Soft (C3),1,0.062,-27.017,61.226,-450.975,0,AC_NO_FLAG,false,true,1,false,0,-180,3583,0,0,50,0,3701,0.015,0.001,0,0,0,0,0,0,0.071,0.069,0.035,0.047,1679.355,2102.45,2497.38,1995.171,17,17,15,15,0.001,0,-0.005,0.006,100,100,100,100,0,0,0,0,26.002,26.002,26.003,26.002,-0.057,0.051,-0.021,0.027,0.104,0.106,0.049,0.046,0,0,0,-0.011,0.023,0.27,0,0,0,0,0,0,false,0,1,0,true,0.033,0.059,0,0,1.099,26,23,0,0,0,0.002,0,6,5,3,1,false,0,true,false,25.996,25.996,26.025,26.025,1,25.984,26.124,26.076,26.146,25.989,25.993,26.045,26.036,26.129,25.986,26.146,26.056,false,-26.249,60.913,-449.017,-27.808,60.953,-449.018,-26.266,60.96,-452.613,-27.765,60.99,-452.613,0.026,1,0.013,0.026,1,0.013,0.02,1,0.004,0.02,1,0.004,0.004,0.013,-1,0.007,0.013,-1,0.003,0.004,-1,-0.003,0.005,-1,0.53,0,0,0,1.7,1.16.4,1,1,rss_formula_hybrid_2023,ks_nurburgring,rangarajanpraneeth,rangarajanpraneeth,rangarajanpraneeth,3,239.313,573674.625,13050,148,0.15,0.15,0.15,0.15,0.363,0.363,0.363,0.363,1.6,0,0,false,1,0,0,false,0,true,false,true,true,false,0,11,6,5077.904,layout_gp_a,4000000,false,false,rb20_1_verstappen,0,0,0,280
2437,AC_LIVE,AC_PRACTICE,0:11:661,-:--:---,-:--:---, ,0,1,11661,0,0,-15635.351,0.004,1,0,0,0,Soft (C3),1,0.062,-27.017,61.226,-450.975,0,AC_NO_FLAG,false,true,1,false,0,-180,3586,0,0,50,0,3701,0.015,0.001,0,0,0,0,0,0,0.071,0.069,0.035,0.046,1677.797,2101.85,2496.357,1997.256,17,17,15,15,0.001,0,0.007,-0.005,100,100,100,100,0,0,0,0,26.002,26.002,26.003,26.002,-0.057,0.051,-0.021,0.027,0.104,0.106,0.049,0.046,0,0,0,-0.011,0.023,0.27,0,0,0,0,0,0,false,0,1,0,true,0.033,0.059,0,0,1.099,26,23,0,0,0,0.002,0,6,5,3,1,false,0,true,false,25.996,25.996,26.025,26.025,1,25.984,26.125,26.076,26.146,25.989,25.993,26.045,26.036,26.129,25.986,26.146,26.056,false,-26.249,60.913,-449.017,-27.808,60.953,-449.018,-26.266,60.96,-452.613,-27.765,60.99,-452.613,0.026,1,0.013,0.026,1,0.013,0.02,1,0.004,0.02,1,0.004,0.004,0.013,-1,0.007,0.013,-1,0.003,0.004,-1,-0.003,0.005,-1,0.53,0,0,0,1.7,1.16.4,1,1,rss_formula_hybrid_2023,ks_nurburgring,rangarajanpraneeth,rangarajanpraneeth,rangarajanpraneeth,3,239.313,573674.625,13050,148,0.15,0.15,0.15,0.15,0.363,0.363,0.363,0.363,1.6,0,0,false,1,0,0,false,0,true,false,true,true,false,0,11,6,5077.904,layout_gp_a,4000000,false,false,rb20_1_verstappen,0,0,0,290
2439,AC_LIVE,AC_PRACTICE,0:11:667,-:--:---,-:--:---, ,0,1,11667,0,0,-15642.808,0.004,1,0,0,0,Soft (C3),1,0.062,-27.017,61.226,-450.975,0,AC_NO_FLAG,false,true,1,false,0,-180,3589,0,0,50,0,3701,0.015,0.001,0,0,0,0,0,0,0.071,0.069,0.035,0.047,1677.914,2103.327,2496.343,1998.203,17,17,15,15,0.001,0.001,-0.004,0.007,100,100,100,100,0,0,0,0,26.002,26.002,26.003,26.002,-0.057,0.051,-0.021,0.027,0.104,0.106,0.049,0.046,0,0,0,-0.011,0.023,0.27,0,0,0,0,0,0,false,0,1,0,true,0.033,0.059,0,0,1.099,26,23,0,0,0,0.002,0,6,5,3,1,false,0,true,false,25.996,25.996,26.025,26.025,1,25.984,26.125,26.076,26.146,25.989,25.993,26.045,26.036,26.129,25.986,26.146,26.056,false,-26.249,60.913,-449.017,-27.808,60.953,-449.018,-26.266,60.96,-452.613,-27.765,60.99,-452.613,0.026,1,0.013,0.026,1,0.013,0.02,1,0.004,0.02,1,0.004,0.004,0.013,-1,0.007,0.013,-1,0.003,0.004,-1,-0.003,0.005,-1,0.53,0,0,0,1.7,1.16.4,1,1,rss_formula_hybrid_2023,ks_nurburgring,rangarajanpraneeth,rangarajanpraneeth,rangarajanpraneeth,3,239.313,573674.625,13050,148,0.15,0.15,0.15,0.15,0.363,0.363,0.363,0.363,1.6,0,0,false,1,0,0,false,0,true,false,true,true,false,0,11,6,5077.904,layout_gp_a,4000000,false,false,rb20_1_verstappen,0,0,0,300
2441,AC_LIVE,AC_PRACTICE,0:11:676,-:--:---,-:--:---, ,0,1,11676,0,0,-15650.424,0.004,1,0,0,0,Soft (C3),1,0.062,-27.017,61.226,-450.975,0,AC_NO_FLAG,false,true,1,false,0,-180,3593,0,0,50,0,3701,0.016,0,0,0,0,0,0,0,0.071,0.069,0.035,0.047,1678.737,2104.48,2495.328,1995.326,17,17,15,15,0,0,-0.006,0.005,100,100,100,100,0,0,0,0,26.002,26.002,26.003,26.002,-0.057,0.051,-0.021,0.027,0.104,0.106,0.049,0.046,0,0,0,-0.011,0.023,0.27,0,0,0,0,0,0,false,0,1,0,true,0.033,0.059,0,0,1.099,26,23,0,0,0,0.002,0,6,5,3,1,false,0,true,false,25.996,25.996,26.025,26.025,1,25.984,26.125,26.076,26.146,25.989,25.993,26.045,26.036,26.129,25.986,26.146,26.056,false,-26.249,60.913,-449.017,-27.808,60.953,-449.018,-26.266,60.96,-452.613,-27.765,60.99,-452.613,0.026,1,0.013,0.026,1,0.013,0.02,1,0.004,0.02,1,0.004,0.004,0.013,-1,0.007,0.013,-1,0.003,0.004,-1,-0.003,0.005,-1,0.53,0,0,0,1.7,1.16.4,1,1,rss_formula_hybrid_2023,ks_nurburgring,rangarajanpraneeth,rangarajanpraneeth,rangarajanpraneeth,3,239.313,573674.625,13050,148,0.15,0.15,0.15,0.15,0.363,0.363,0.363,0.363,1.6,0,0,false,1,0,0,false,0,true,false,true,true,false,0,11,6,5077.904,layout_gp_a,4000000,false,false,rb20_1_verstappen,0,0,0,310
2445,AC_LIVE,AC_PRACTICE,0:11:691,-:--:---,-:--:---, ,0,1,11691,0,0,-15665.549,0.004,1,0,0,0,Soft (C3),1,0.062,-27.017,61.226,-450.975,0,AC_NO_FLAG,false,true,1,false,0,-180,3596,0,0,50,0,3701,0.016,0.001,0,0,0,0,0,0,0.071,0.069,0.034,0.048,1676.87,2101.597,2495.383,1996.156,17,17,15,15,0.001,0,0.007,-0.005,100,100,100,100,0,0,0,0,26.002,26.002,26.003,26.002,-0.057,0.051,-0.021,0.027,0.104,0.106,0.049,0.046,0,0,0,-0.011,0.023,0.27,0,0,0,0,0,0,false,0,1,0,true,0.033,0.059,0,0,1.099,26,23,0,0,0,0.002,0,6,5,3,1,false,0,true,false,25.996,25.996,26.025,26.025,1,25.984,26.125,26.076,26.147,25.989,25.993,26.045,26.036,26.129,25.986,26.146,26.056,false,-26.249,60.913,-449.017,-27.808,60.953,-449.018,-26.266,60.96,-452.613,-27.765,60.99,-452.613,0.026,1,0.013,0.026,1,0.013,0.02,1,0.004,0.02,1,0.004,0.004,0.013,-1,0.007,0.013,-1,0.003,0.004,-1,-0.003,0.005,-1,0.53,0,0,0,1.7,1.16.4,1,1,rss_formula_hybrid_2023,ks_nurburgring,rangarajanpraneeth,rangarajanpraneeth,rangarajanpraneeth,3,239.313,573674.625,13050,148,0.15,0.15,0.15,0.15,0.363,0.363,0.363,0.363,1.6,0,0,false,1,0,0,false,0,true,false,true,true,false,0,11,6,5077.904,layout_gp_a,4000000,false,false,rb20_1_verstappen,0,0,0,320
2447,AC_LIVE,AC_PRACTICE,0:11:697,-:--:---,-:--:---, ,0,1,11697,0,0,-15672.983,0.004,1,0,0,0,Soft (C3),1,0.062,-27.017,61.226,-450.975,0,AC_NO_FLAG,false,true,1,false,0,-180,3599,0,0,50,0,3701,0.016,0.002,0,0,0,0,0,0,0.071,0.069,0.034,0.047,1677.989,2101.631,2496.4,1997.2,17,17,15,15,0.001,0,-0.006,0.007,100,100,100,100,0,0,0,0,26.002,26.002,26.003,26.002,-0.057,0.051,-0.021,0.027,0.104,0.106,0.049,0.046,0,0,0,-0.011,0.023,0.27,0,0,0,0,0,0,false,0,1,0,true,0.033,0.059,0,0,1.099,26,23,0,0,0,0.002,0,6,5,3,1,false,0,true,false,25.996,25.996,26.025,26.025,1,25.984,26.125,26.076,26.147,25.989,25.993,26.045,26.036,26.13,25.986,26.146,26.056,false,-26.249,60.913,-449.017,-27.808,60.953,-449.018,-26.266,60.96,-452.613,-27.765,60.99,-452.613,0.026,1,0.013,0.026,1,0.013,0.02,1,0.004,0.02,1,0.004,0.004,0.013,-1,0.008,0.013,-1,0.003,0.004,-1,-0.003,0.005,-1,0.53,0,0,0,1.7,1.16.4,1,1,rss_formula_hybrid_2023,ks_nurburgring,rangarajanpraneeth,rangarajanpraneeth,rangarajanpraneeth,3,239.313,573674.625,13050,148,0.15,0.15,0.15,0.15,0.363,0.363,0.363,0.363,1.6,0,0,false,1,0,0,false,0,true,false,true,true,false,0,11,6,5077.904,layout_gp_a,4000000,false,false,rb20_1_verstappen,0,0,0,330
2449,AC_LIVE,AC_PRACTICE,0:11:706,-:--:---,-:--:---, ,0,1,11706,0,0,-15680.631,0.004,1,0,0,0,Soft (C3),1,0.062,-27.017,61.226,-450.975,0,AC_NO_FLAG,false,true,1,false,0,-180,3602,0,0,50,0,3701,0.016,0.001,0,0,0,0,0,0,0.072,0.068,0.034,0.047,1679.035,2100.716,2494.247,1997.309,17,17,15,15,0.001,0.001,0.006,-0.007,100,100,100,100,0,0,0,0,26.002,26.002,26.003,26.002,-0.057,0.051,-0.021,0.027,0.104,0.106,0.049,0.046,0,0,0,-0.011,0.023,0.27,0,0,0,0,0,0,false,0,1,0,true,0.033,0.059,0,0,1.099,26,23,0,0,0,0.002,0,6,5,3,1,false,0,true,false,25.996,25.996,26.025,26.025,1,25.984,26.125,26.076,26.147,25.989,25.993,26.045,26.036,26.13,25.986,26.146,26.056,false,-26.249,60.913,-449.017,-27.809,60.953,-449.018,-26.266,60.96,-452.613,-27.765,60.99,-452.613,0.026,1,0.013,0.026,1,0.013,0.02,1,0.004,0.02,1,0.004,0.004,0.013,-1,0.008,0.013,-1,0.003,0.004,-1,-0.003,0.005,-1,0.53,0,0,0,1.7,1.16.4,1,1,rss_formula_hybrid_2023,ks_nurburgring,rangarajanpraneeth,rangarajanpraneeth,rangarajanpraneeth,3,239.313,573674.625,13050,148,0.15,0.15,0.15,0.15,0.363,0.363,0.363,0.363,1.6,0,0,false,1,0,0,false,0,true,false,true,true,false,0,11,6,5077.904,layout_gp_a,4000000,false,false,rb20_1_verstappen,0,0,0,340
2453,AC_LIVE,AC_PRACTICE,0:11:721,-:--:---,-:--:---, ,0,1,11721,0,0,-15695.634,0.004,1,0,0,0,Soft (C3),1,0.062,-27.017,61.226,-450.975,0,AC_NO_FLAG,false,true,1,false,0,-180,3606,0,0,50,0,3701,0.016,0.001,0,0,0,0,0,0,0.072,0.068,0.034,0.047,1677.987,2102.257,2496.389,1997.354,17,17,15,15,0.001,0,0.008,-0.004,100,100,100,100,0,0,0,0,26.002,26.002,26.003,26.002,-0.057,0.051,-0.021,0.027,0.104,0.106,0.049,0.046,0,0,0,-0.011,0.023,0.27,0,0,0,0,0,0,false,0,1,0,true,0.033,0.059,0,0,1.099,26,23,0,0,0,0.002,0,6,5,3,1,false,0,true,false,25.996,25.996,26.025,26.025,1,25.984,26.125,26.077,26.147,25.989,25.993,26.045,26.036,26.13,25.986,26.147,26.056,false,-26.25,60.913,-449.017,-27.809,60.953,-449.018,-26.266,60.96,-452.613,-27.765,60.99,-452.613,0.026,1,0.013,0.026,1,0.013,0.02,1,0.004,0.02,1,0.004,0.005,0.013,-1,0.008,0.013,-1,0.003,0.004,-1,-0.003,0.005,-1,0.53,0,0,0,1.7,1.16.4,1,1,rss_formula_hybrid_2023,ks_nurburgring,rangarajanpraneeth,rangarajanpraneeth,rangarajanpraneeth,3,239.313,573674.625,13050,148,0.15,0.15,0.15,0.15,0.363,0.363,0.363,0.363,1.6,0,0,false,1,0,0,false,0,true,false,true,true,false,0,11,6,5077.904,layout_gp_a,4000000,false,false,rb20_1_verstappen,0,0,0,350
2455,AC_LIVE,AC_PRACTICE,0:11:727,-:--:---,-:--:---, ,0,1,11727,0,0,-15703.232,0.004,1,0,0,0,Soft (C3),1,0.062,-27.017,61.226,-450.975,0,AC_NO_FLAG,false,true,1,false,0,-180,3610,0,0,50,0,3701,0.017,0.001,0,0,0,0,0,0,0.074,0.066,0.033,0.048,1678.376,2102.507,2496.431,1995.513,17,17,15,15,0.001,0.001,0.006,-0.006,100,100,100,100,0,0,0,0,26.002,26.002,26.003,26.002,-0.057,0.051,-0.021,0.027,0.104,0.106,0.049,0.046,0,0,0,-0.011,0.023,0.27,0,0,0,0,0,0,false,0,1,0,true,0.033,0.059,0,0,1.099,26,23,0,0,0,0.002,0,6,5,3,1,false,0,true,false,25.996,25.996,26.025,26.025,1,25.984,26.125,26.077,26.147,25.989,25.993,26.045,26.036,26.13,25.986,26.147,26.056,false,-26.25,60.913,-449.017,-27.809,60.953,-449.018,-26.266,60.96,-452.613,-27.765,60.99,-452.613,0.026,1,0.013,0.026,1,0.013,0.02,1,0.004,0.02,1,0.004,0.005,0.013,-1,0.008,0.013,-1,0.003,0.004,-1,-0.003,0.005,-1,0.53,0,0,0,1.7,1.16.4,1,1,rss_formula_hybrid_2023,ks_nurburgring,rangarajanpraneeth,rangarajanpraneeth,rangarajanpraneeth,3,239.313,573674.625,13050,148,0.15,0.15,0.15,0.15,0.363,0.363,0.363,0.363,1.6,0,0,false,1,0,0,false,0,true,false,true,true,false,0,11,6,5077.904,layout_gp_a,4000000,false,false,rb20_1_verstappen,0,0,0,360
2457,AC_LIVE,AC_PRACTICE,0:11:736,-:--:---,-:--:---, ,0,1,11736,0,0,-15710.98,0.004,1,0,0,0,Soft (C3),1,0.062,-27.017,61.226,-450.975,0,AC_NO_FLAG,false,true,1,false,0,-180,3613,0,0,50,0,3701,0.017,0,0,0,0,0,0,0,0.073,0.067,0.035,0.046,1679.454,2103.121,2496.346,1995.424,17,17,15,15,0.001,0,-0.005,0.005,100,100,100,100,0,0,0,0,26.002,26.002,26.003,26.002,-0.057,0.051,-0.021,0.027,0.104,0.106,0.049,0.046,0,0,0,-0.011,0.023,0.27,0,0,0,0,0,0,false,0,1,0,true,0.033,0.059,0,0,1.099,26,23,0,0,0,0.002,0,6,5,3,1,false,0,true,false,25.996,25.996,26.025,26.025,1,25.984,26.125,26.077,26.147,25.989,25.993,26.045,26.036,26.13,25.986,26.147,26.057,false,-26.25,60.913,-449.017,-27.809,60.953,-449.018,-26.266,60.96,-452.613,-27.765,60.99,-452.613,0.026,1,0.013,0.026,1,0.013,0.02,1,0.004,0.02,1,0.004,0.005,0.013,-1,0.008,0.013,-1,0.003,0.004,-1,-0.003,0.005,-1,0.53,0,0,0,1.7,1.16.4,1,1,rss_formula_hybrid_2023,ks_nurburgring,rangarajanpraneeth,rangarajanpraneeth,rangarajanpraneeth,3,239.313,573674.625,13050,148,0.15,0.15,0.15,0.15,0.363,0.363,0.363,0.363,1.6,0,0,false,1,0,0,false,0,true,false,true,true,false,0,11,6,5077.904,layout_gp_a,4000000,false,false,rb20_1_verstappen,0,0,0,370
2461,AC_LIVE,AC_PRACTICE,0:11:751,-:--:---,-:--:---, ,0,1,11751,0,0,-15725.933,0.004,1,0,0,0,Soft (C3),1,0.062,-27.017,61.226,-450.975,0,AC_NO_FLAG,false,true,1,false,0,-180,3616,0,0,50,0,3701,0.017,0.001,0,0,0,0,0,0,0.075,0.065,0.034,0.048,1678.69,2101.374,2498.422,1996.278,17,17,15,15,0.001,0,0.007,-0.004,100,100,100,100,0,0,0,0,26.002,26.002,26.003,26.002,-0.057,0.051,-0.021,0.027,0.104,0.106,0.049,0.046,0,0,0,-0.011,0.023,0.27,0,0,0,0,0,0,false,0,1,0,true,0.033,0.059,0,0,1.099,26,23,0,0,0,0.002,0,6,5,3,1,false,0,true,false,25.996,25.996,26.025,26.025,1,25.984,26.125,26.077,26.147,25.989,25.993,26.045,26.036,26.13,25.986,26.147,26.057,false,-26.25,60.913,-449.017,-27.809,60.953,-449.018,-26.266,60.96,-452.613,-27.765,60.99,-452.613,0.026,1,0.013,0.026,1,0.013,0.02,1,0.004,0.02,1,0.004,0.005,0.013,-1,0.008,0.013,-1,0.003,0.004,-1,-0.003,0.005,-1,0.53,0,0,0,1.7,1.16.4,1,1,rss_formula_hybrid_2023,ks_nurburgring,rangarajanpraneeth,rangarajanpraneeth,rangarajanpraneeth,3,239.313,573674.625,13050,148,0.15,0.15,0.15,0.15,0.363,0.363,0.363,0.363,1.6,0,0,false,1,0,0,false,0,true,false,true,true,false,0,11,6,5077.904,layout_gp_a,4000000,false,false,rb20_1_verstappen,0,0,0,380
2463,AC_LIVE,AC_PRACTICE,0:11:757,-:--:---,-:--:---, ,0,1,11757,0,0,-15733.353,0.004,1,0,0,0,Soft (C3),1,0.062,-27.017,61.226,-450.975,0,AC_NO_FLAG,false,true,1,false,0,-180,3619,0,0,50,0,3700,0.017,0.002,0,0,0,0,0,0,0.074,0.066,0.034,0.048,1681.032,2100.548,2499.385,1997.318,17,17,15,15,0,0,-0.006,0.007,100,100,100,100,0,0,0,0,26.002,26.002,26.003,26.002,-0.057,0.051,-0.021,0.027,0.104,0.106,0.049,0.046,0,0,0,-0.011,0.023,0.27,0,0,0,0,0,0,false,0,1,0,true,0.033,0.059,0,0,1.099,26,23,0,0,0,0.002,0,6,5,3,1,false,0,true,false,25.996,25.996,26.025,26.025,1,25.984,26.125,26.077,26.147,25.989,25.993,26.045,26.036,26.13,25.986,26.147,26.057,false,-26.25,60.913,-449.017,-27.809,60.953,-449.018,-26.266,60.96,-452.613,-27.765,60.99,-452.613,0.026,1,0.013,0.026,1,0.013,0.02,1,0.004,0.02,1,0.004,0.005,0.013,-1,0.008,0.013,-1,0.003,0.004,-1,-0.003,0.005,-1,0.53,0,0,0,1.7,1.16.4,1,1,rss_formula_hybrid_2023,ks_nurburgring,rangarajanpraneeth,rangarajanpraneeth,rangarajanpraneeth,3,239.313,573674.625,13050,148,0.15,0.15,0.15,0.15,0.363,0.363,0.363,0.363,1.6,0,0,false,1,0,0,false,0,true,false,true,true,false,0,11,6,5077.904,layout_gp_a,4000000,false,false,rb20_1_verstappen,0,0,0,390
2465,AC_LIVE,AC_PRACTICE,0:11:766,-:--:---,-:--:---, ,0,1,11766,0,0,-15741.007,0.004,1,0,0,0,Soft (C3),1,0.062,-27.017,61.226,-450.975,0,AC_NO_FLAG,false,true,1,false,0,-180,3623,0,0,50,0,3700,0.018,0.001,0,0,0,0,0,0,0.075,0.065,0.034,0.048,1681.106,2102.608,2498.44,1994.319,17,17,15,15,0.001,0.001,-0.005,0.006,100,100,100,100,0,0,0,0,26.002,26.002,26.003,26.002,-0.057,0.051,-0.021,0.027,0.104,0.106,0.049,0.046,0,0,0,-0.011,0.023,0.27,0,0,0,0,0,0,false,0,1,0,true,0.033,0.059,0,0,1.099,26,23,0,0,0,0.002,0,6,5,3,1,false,0,true,false,25.996,25.996,26.025,26.025,1,25.984,26.125,26.077,26.147,25.989,25.993,26.045,26.036,26.13,25.986,26.147,26.057,false,-26.25,60.913,-449.017,-27.809,60.953,-449.018,-26.266,60.96,-452.613,-27.765,60.99,-452.613,0.026,1,0.013,0.026,1,0.013,0.02,1,0.004,0.02,1,0.004,0.005,0.013,-1,0.008,0.013,-1,0.003,0.004,-1,-0.003,0.005,-1,0.53,0,0,0,1.7,1.16.4,1,1,rss_formula_hybrid_2023,ks_nurburgring,rangarajanpraneeth,rangarajanpraneeth,rangarajanpraneeth,3,239.313,573674.625,13050,148,0.15,0.15,0.15,0.15,0.363,0.363,0.363,0.363,1.6,0,0,false,1,0,0,false,0,true,false,true,true,false,0,11,6,5077.904,layout_gp_a,4000000,false,false,rb20_1_verstappen,0,0,0,400
2469,AC_LIVE,AC_PRACTICE,0:11:781,-:--:---,-:--:---, ,0,1,11781,0,0,-15756.05,0.004,1,0,0,0,Soft (C3),1,0.062,-27.017,61.226,-450.975,0,AC_NO_FLAG,false,true,1,false,0,-180,3626,0,0,50,0,3700,0.018,0.001,0,0,0,0,0,0,0.075,0.065,0.034,0.047,1680.119,2101.547,2497.266,1993.258,17,17,15,15,0.001,0,0.006,-0.006,100,100,100,100,0,0,0,0,26.002,26.002,26.003,26.002,-0.057,0.051,-0.021,0.027,0.104,0.106,0.049,0.046,0,0,0,-0.011,0.023,0.27,0,0,0,0,0,0,false,0,1,0,true,0.033,0.059,0,0,1.099,26,23,0,0,0,0.002,0,6,5,3,1,false,0,true,false,25.996,25.996,26.025,26.025,1,25.984,26.126,26.077,26.147,25.989,25.993,26.046,26.036,26.13,25.986,26.147,26.057,false,-26.25,60.913,-449.017,-27.809,60.953,-449.018,-26.266,60.96,-452.613,-27.765,60.99,-452.613,0.026,1,0.013,0.026,1,0.013,0.02,1,0.004,0.02,1,0.004,0.005,0.013,-1,0.008,0.013,-1,0.003,0.004,-1,-0.003,0.005,-1,0.53,0,0,0,1.7,1.16.4,1,1,rss_formula_hybrid_2023,ks_nurburgring,rangarajanpraneeth,rangarajanpraneeth,rangarajanpraneeth,3,239.313,573674.625,13050,148,0.15,0.15,0.15,0.15,0.363,0.363,0.363,0.363,1.6,0,0,false,1,0,0,false,0,true,false,true,true,false,0,11,6,5077.904,layout_gp_a,4000000,false,false,rb20_1_verstappen,0,0,0,410
2471,AC_LIVE,AC_PRACTICE,0:11:787,-:--:---,-:--:---, ,0,1,11787,0,0,-15763.655,0.004,1,0,0,0,Soft (C3),1,0.062,-27.017,61.226,-450.975,0,AC_NO_FLAG,false,true,1,false,0,-180,3629,0,0,50,0,3700,0.019,0.001,0,0,0,0,0,0,0.075,0.065,0.035,0.047,1680.815,2100.33,2498.364,1995.351,17,17,15,15,0,0,-0.004,0.006,100,100,100,100,0,0,0,0,26.002,26.002,26.003,26.002,-0.057,0.051,-0.021,0.027,0.104,0.106,0.049,0.046,0,0,0,-0.011,0.023,0.27,0,0,0,0,0,0,false,0,1,0,true,0.033,0.059,0,0,1.099,26,23,0,0,0,0.001,0,6,5,3,1,false,0,true,false,25.996,25.996,26.025,26.025,1,25.984,26.126,26.077,26.147,25.989,25.993,26.046,26.036,26.13,25.986,26.147,26.057,false,-26.25,60.913,-449.017,-27.809,60.953,-449.018,-26.266,60.96,-452.613,-27.765,60.99,-452.613,0.026,1,0.013,0.026,1,0.013,0.02,1,0.004,0.02,1,0.004,0.005,0.013,-1,0.008,0.013,-1,0.003,0.004,-1,-0.003,0.005,-1,0.53,0,0,0,1.7,1.16.4,1,1,rss_formula_hybrid_2023,ks_nurburgring,rangarajanpraneeth,rangarajanpraneeth,rangarajanpraneeth,3,239.313,573674.625,13050,148,0.15,0.15,0.15,0.15,0.363,0.363,0.363,0.363,1.6,0,0,false,1,0,0,false,0,true,false,true,true,false,0,11,6,5077.904,layout_gp_a,4000000,false,false,rb20_1_verstappen,0,0,0,420
2473,AC_LIVE,AC_PRACTICE,0:11:796,-:--:---,-:--:---, ,0,1,11796,0,0,-15771.273,0.004,1,0,0,0,Soft (C3),1,0.062,-27.017,61.226,-450.975,0,AC_NO_FLAG,false,true,1,false,0,-180,3633,0,0,50,0,3700,0.019,0.001,0,0,0,0,0,0,0.075,0.065,0.035,0.047,1683.577,2099.559,2500.558,1994.317,17,17,15,15,0.001,0,-0.005,0.006,100,100,100,100,0,0,0,0,26.002,26.002,26.003,26.002,-0.057,0.051,-0.021,0.027,0.104,0.106,0.049,0.046,0,0,0,-0.011,0.023,0.27,0,0,0,0,0,0,false,0,1,0,true,0.033,0.059,0,0,1.099,26,23,0,0,0,0.002,0,6,5,3,1,false,0,true,false,25.996,25.996,26.025,26.025,1,25.984,26.126,26.077,26.148,25.989,25.993,26.046,26.036,26.13,25.986,26.147,26.057,false,-26.25,60.913,-449.017,-27.809,60.953,-449.018,-26.266,60.96,-452.613,-27.765,60.99,-452.613,0.026,1,0.013,0.026,1,0.013,0.02,1,0.004,0.02,1,0.004,0.006,0.013,-1,0.009,0.013,-1,0.003,0.004,-1,-0.003,0.005,-1,0.53,0,0,0,1.7,1.16.4,1,1,rss_formula_hybrid_2023,ks_nurburgring,rangarajanpraneeth,rangarajanpraneeth,rangarajanpraneeth,3,239.313,573674.625,13050,148,0.15,0.15,0.15,0.15,0.363,0.363,0.363,0.363,1.6,0,0,false,1,0,0,false,0,true,false,true,true,false,0,11,6,5077.904,layout_gp_a,4000000,false,false,rb20_1_verstappen,0,0,0,430
2477,AC_LIVE,AC_PRACTICE,0:11:811,-:--:---,-:--:---, ,0,1,11811,0,0,-15786.294,0.004,1,0,0,0,Soft (C3),1,0.062,-27.017,61.226,-450.975,0,AC_NO_FLAG,false,true,1,false,0,-180,3636,0,0,50,0,3700,0.02,0,0,0,0,0,0,0,0.077,0.064,0.035,0.047,1681.117,2098.369,2497.395,1993.373,17,17,15,15,0,0,0.006,-0.006,100,100,100,100,0,0,0,0,26.002,26.002,26.003,26.002,-0.057,0.051,-0.021,0.027,0.104,0.106,0.049,0.046,0,0,0,-0.011,0.023,0.27,0,0,0,0,0,0,false,0,1,0,true,0.033,0.059,0,0,1.099,26,23,0,0,0,0.002,0,6,5,3,1,false,0,true,false,25.996,25.996,26.025,26.025,1,25.984,26.126,26.077,26.148,25.989,25.993,26.046,26.036,26.131,25.986,26.147,26.057,false,-26.25,60.913,-449.017,-27.809,60.953,-449.018,-26.266,60.96,-452.613,-27.765,60.99,-452.613,0.026,1,0.013,0.026,1,0.013,0.02,1,0.004,0.02,1,0.004,0.006,0.013,-1,0.009,0.013,-1,0.003,0.004,-1,-0.003,0.005,-1,0.53,0,0,0,1.7,1.16.4,1,1,rss_formula_hybrid_2023,ks_nurburgring,rangarajanpraneeth,rangarajanpraneeth,rangarajanpraneeth,3,239.313,573674.625,13050,148,0.15,0.15,0.15,0.15,0.363,0.363,0.363,0.363,1.6,0,0,false,1,0,0,false,0,true,false,true,true,false,0,11,6,5077.904,layout_gp_a,4000000,false,false,rb20_1_verstappen,0,0,0,440
2479,AC_LIVE,AC_PRACTICE,0:11:817,-:--:---,-:--:---, ,0,1,11817,0,0,-15793.721,0.004,1,0,0,0,Soft (C3),1,0.062,-27.017,61.226,-450.975,0,AC_NO_FLAG,false,true,1,false,0,-180,3640,0,0,50,0,3700,0.021,0.001,0,0,0,0,0,0,0.079,0.061,0.033,0.048,1683.528,2099.232,2495.08,1995.372,17,17,15,15,0,-0.001,0.006,-0.006,100,100,100,100,0,0,0,0,26.002,26.002,26.003,26.002,-0.057,0.051,-0.021,0.027,0.104,0.106,0.049,0.046,0,0,0,-0.011,0.023,0.27,0,0,0,0,0,0,false,0,1,0,true,0.033,0.059,0,0,1.099,26,23,0,0,0,0.002,0,6,5,3,1,false,0,true,false,25.996,25.996,26.025,26.025,1,25.984,26.126,26.077,26.148,25.989,25.993,26.046,26.036,26.131,25.986,26.147,26.057,false,-26.25,60.913,-449.017,-27.809,60.953,-449.018,-26.266,60.96,-452.613,-27.765,60.99,-452.613,0.026,1,0.013,0.026,1,0.013,0.02,1,0.004,0.02,1,0.004,0.006,0.013,-1,0.009,0.013,-1,0.003,0.004,-1,-0.003,0.005,-1,0.53,0,0,0,1.7,1.16.4,1,1,rss_formula_hybrid_2023,ks_nurburgring,rangarajanpraneeth,rangarajanpraneeth,rangarajanpraneeth,3,239.313,573674.625,13050,148,0.15,0.15,0.15,0.15,0.363,0.363,0.363,0.363,1.6,0,0,false,1,0,0,false,0,true,false,true,true,false,0,11,6,5077.904,layout_gp_a,4000000,false,false,rb20_1_verstappen,0,0,0,450
2481,AC_LIVE,AC_PRACTICE,0:11:826,-:--:---,-:--:---, ,0,1,11826,0,0,-15801.352,0.004,1,0,0,0,Soft (C3),1,0.062,-27.017,61.226,-450.975,0,AC_NO_FLAG,false,true,1,false,0,-180,3642,0,0,50,0,3700,0.021,0.001,0,0,0,0,0,0,0.077,0.063,0.035,0.047,1682.664,2099.835,2500.596,1995.522,17,17,15,15,0.001,0,0.006,-0.006,100,100,100,100,0,0,0,0,26.002,26.002,26.003,26.002,-0.057,0.051,-0.021,0.027,0.104,0.106,0.049,0.046,0,0,0,-0.011,0.023,0.27,0,0,0,0,0,0,false,0,1,0,true,0.033,0.059,0,0,1.099,26,23,0,0,0,0.002,0,6,5,3,1,false,0,true,false,25.996,25.996,26.025,26.025,1,25.984,26.126,26.077,26.148,25.989,25.993,26.046,26.036,26.131,25.986,26.148,26.057,false,-26.25,60.913,-449.017,-27.809,60.953,-449.018,-26.266,60.96,-452.613,-27.765,60.99,-452.613,0.026,1,0.013,0.026,1,0.013,0.02,1,0.004,0.02,1,0.004,0.006,0.013,-1,0.009,0.013,-1,0.003,0.004,-1,-0.003,0.005,-1,0.53,0,0,0,1.7,1.16.4,1,1,rss_formula_hybrid_2023,ks_nurburgring,rangarajanpraneeth,rangarajanpraneeth,rangarajanpraneeth,3,239.313,573674.625,13050,148,0.15,0.15,0.15,0.15,0.363,0.363,0.363,0.363,1.6,0,0,false,1,0,0,false,0,true,false,true,true,false,0,11,6,5077.904,layout_gp_a,4000000,false,false,rb20_1_verstappen,0,0,0,460
