packetID,status,session,currentTime,lastTime,bestTime,split,completedLaps,position,iCurrentTime,iLastTime,iBestTime,sessionTimeLeft,distanceTraveled,isInPit,currentSectorIndex,lastSectorTime,numLaps,tireCompound,replayTimeMultiplier,normalizedCarPosition,coordinates,penaltyTime,flag,idealLineOn,isInPitLane,surfaceGrip,mandatoryPitDone,windSpeed,windDirection,packetID,throttle,brake,fuel,gear,RPM,steeringAngle,speedKMH,velocity,accG,wheelSlip,wheelLoad,wheelPressure,wheelAngularSpeed,tireWear,tireDirtyLevel,tireCoreTemp,camberRAD,suspTravel,drs,tc,heading,pitch,roll,cgHeight,carDmg,numTiresOut,pitLimiterOn,abs,kersCharge,kersInput,autoShifterOn,rideHeight,turboBoost,ballast,airDensity,airTemp,roadTemp,localAngularVelocity,finalForceFeedback,performanceMeter,engineBrake,ersRecoveryLevel,ersPowerLevel,ersHeatCharging,ersIsCharging,kersCurrentKJ,drsAvailable,drsEnabled,brakeTemp,clutch,tireTempInner,tireTempMiddle,tireTempOuter,AIControlled,tireContactPoint,tireContactNormal,tireContactHeading,brakeBias,localVelocity,smVersion,acVersion,numSessions,numCars,carName,trackName,playerFName,playerLName,playerNickname,numSectors,maxTorque,maxPower,maxRPM,maxFuel,maxSuspensionTravel,tireRadius,maxTurboBoost,deprecated1,deprecated2,penaltiesEnabled,fuelConsumptionRate,tireWearRate,damageRate,allowTireBlankets,stabilityControl,autoClutch,autoBlip,hasDRS,hasERS,hasKERS,maxJoulesKERS,engineBrakeSettingsCount,ERSPowerControllerCount,trackSplineLength,trackConfiguration,maxJoulesERS,isTimedRace,hasExtraLap,carSkin,reversedGridPositions,pitWindowStart,pitWindowEnd,sessionTime
3484,AC_LIVE,AC_PRACTICE,0:11:346,-:--:---,-:--:---, ,0,1,11346,0,0,-14002.012,19.213,0,0,0,0,Soft (C3),1,0.065,-22.515,60.849,-432.271,0,AC_NO_FLAG,false,false,1,false,0,-180,0,0,49.993,1,3160,-0.142,26.382,2.794,-0.178,6.773,0.097,-0.009,0.047,0.073,0.087,0.036,0.085,1639.731,2507.083,2362.08,1856.217,17,17,15.038,15.034,19.949,20.406,19.972,20.396,100,100,100,100,0,0,0.015,0.007,26.002,26.002,26.392,26.353,-0.067,0.075,-0.01,0.023,0.104,0.106,0.049,0.048,0,0,-0.368,-0.026,-0.009,0.27,0,0,0,0,0,0,false,0,1,0,true,0.034,0.059,0.001,0,1.099,26,23,0.021,0.105,-0.043,-0.02,0,6,5,3,1,false,0,true,false,25.996,25.996,26.029,26.029,1,26.713,26.874,38.538,38.488,26.729,26.646,38.245,37.287,26.939,26.597,39.496,37.519,false,-21.082,60.531,-430.691,-22.503,60.522,-430.126,-22.371,60.63,-434.038,-23.783,60.613,-433.494,0.023,0.999,0.027,-0.015,1,0.027,-0.015,1,0.027,0,1,0.021,-0.406,0.033,-0.913,-0.403,0.019,-0.915,-0.357,0.02,-0.934,-0.363,0.02,-0.932,0.53,0.17,0.013,7.326,1.7,1.16.4,1,1,rss_formula_hybrid_2023,ks_nurburgring,rangarajanpraneeth,rangarajanpraneeth,rangarajanpraneeth,3,239.313,573674.625,13050,148,0.15,0.15,0.15,0.15,0.363,0.363,0.363,0.363,1.6,0,0,false,1,0,0,false,0,true,false,true,true,false,0,11,6,5077.904,layout_gp_a,4000000,false,false,rb20_1_verstappen,0,0,0,0
3487,AC_LIVE,AC_PRACTICE,0:11:361,-:--:---,-:--:---, ,0,1,11361,0,0,-14017.709,19.328,0,0,0,0,Soft (C3),1,0.065,-22.473,60.847,-432.169,0,AC_NO_FLAG,false,false,1,false,0,-180,0,0,49.993,1,3165,-0.142,26.398,2.804,-0.178,6.773,0.098,0.001,0.046,0.074,0.086,0.036,0.085,1608.294,2533.228,2434.458,1873.433,17,17,15.038,15.034,19.976,20.433,20.001,20.426,100,100,100,100,0,0,0.014,0.006,26.002,26.002,26.393,26.354,-0.067,0.075,-0.009,0.023,0.104,0.106,0.049,0.047,0,0,-0.369,-0.026,-0.008,0.27,0,0,0,0,0,0,false,0,1,0,true,0.033,0.059,0.001,0,1.099,26,23,0.012,0.105,-0.043,-0.019,0,6,5,3,1,false,0,true,false,25.996,25.996,26.029,26.029,1,26.714,26.878,38.535,38.485,26.731,26.649,38.242,37.284,26.941,26.6,39.492,37.516,false,-21.055,60.529,-430.632,-22.476,60.521,-430.065,-22.347,60.629,-433.978,-23.759,60.612,-433.432,0.023,0.999,0.027,-0.015,1,0.027,-0.015,1,0.027,0,1,0.021,-0.407,0.033,-0.913,-0.404,0.019,-0.915,-0.358,0.02,-0.934,-0.364,0.02,-0.931,0.53,0.172,0.014,7.331,1.7,1.16.4,1,1,rss_formula_hybrid_2023,ks_nurburgring,rangarajanpraneeth,rangarajanpraneeth,rangarajanpraneeth,3,239.313,573674.625,13050,148,0.15,0.15,0.15,0.15,0.363,0.363,0.363,0.363,1.6,0,0,false,1,0,0,false,0,true,false,true,true,false,0,11,6,5077.904,layout_gp_a,4000000,false,false,rb20_1_verstappen,0,0,0,10
3491,AC_LIVE,AC_PRACTICE,0:11:370,-:--:---,-:--:---, ,0,1,11370,0,0,-14025.977,19.384,0,0,0,0,Soft (C3),1,0.065,-22.448,60.845,-432.108,0,AC_NO_FLAG,false,false,1,false,0,-180,0,0,49.993,1,3171,-0.142,26.419,2.816,-0.177,6.774,0.097,0.013,0.048,0.075,0.085,0.036,0.084,1521.329,2536.044,2565.095,1930.592,17,17,15.038,15.034,20.008,20.466,20.036,20.465,100,100,100,100,0,0,0.013,0.005,26.002,26.002,26.394,26.355,-0.066,0.076,-0.009,0.024,0.104,0.107,0.049,0.047,0,0,-0.37,-0.026,-0.008,0.27,0,0,0,0,0,0,false,0,1,0,true,0.033,0.059,0.001,0,1.099,26,23,0.001,0.105,-0.042,-0.019,0,6,5,3,1,false,0,true,false,25.996,25.996,26.029,26.029,1,26.716,26.883,38.531,38.48,26.733,26.653,38.237,37.28,26.943,26.604,39.487,37.511,false,-21.019,60.526,-430.553,-22.44,60.519,-429.983,-22.315,60.627,-433.897,-23.727,60.61,-433.349,0.023,0.999,0.027,-0.015,1,0.027,-0.015,1,0.027,0,1,0.021,-0.408,0.033,-0.912,-0.405,0.019,-0.914,-0.359,0.02,-0.933,-0.365,0.02,-0.931,0.53,0.174,0.016,7.336,1.7,1.16.4,1,1,rss_formula_hybrid_2023,ks_nurburgring,rangarajanpraneeth,rangarajanpraneeth,rangarajanpraneeth,3,239.313,573674.625,13050,148,0.15,0.15,0.15,0.15,0.363,0.363,0.363,0.363,1.6,0,0,false,1,0,0,false,0,true,false,true,true,false,0,11,6,5077.904,layout_gp_a,4000000,false,false,rb20_1_verstappen,0,0,0,20
3494,AC_LIVE,AC_PRACTICE,0:11:379,-:--:---,-:--:---, ,0,1,11379,0,0,-14033.644,19.445,0,0,0,0,Soft (C3),1,0.065,-22.422,60.844,-432.047,0,AC_NO_FLAG,false,false,1,false,0,-180,0,0,49.993,1,3175,-0.142,26.436,2.826,-0.175,6.775,0.095,0.022,0.052,0.076,0.083,0.037,0.083,1438.721,2531.245,2667.943,1979.626,17,17,15.038,15.034,20.027,20.486,20.058,20.49,100,100,100,100,0,0,0.012,0.004,26.002,26.002,26.395,26.356,-0.066,0.076,-0.008,0.024,0.104,0.107,0.05,0.047,0,0,-0.371,-0.026,-0.008,0.27,0,0,0,0,0,0,false,0,1,0,true,0.033,0.059,0.001,0,1.099,26,23,-0.003,0.105,-0.042,-0.018,0,6,5,3,1,false,0,true,false,25.996,25.996,26.029,26.029,1,26.717,26.887,38.527,38.476,26.735,26.656,38.234,37.276,26.945,26.606,39.484,37.508,false,-20.992,60.524,-430.493,-22.412,60.518,-429.923,-22.291,60.626,-433.837,-23.704,60.609,-433.286,0.023,0.999,0.027,-0.015,1,0.027,-0.015,1,0.027,0,1,0.021,-0.409,0.034,-0.912,-0.406,0.019,-0.914,-0.36,0.02,-0.933,-0.366,0.02,-0.931,0.53,0.176,0.017,7.341,1.7,1.16.4,1,1,rss_formula_hybrid_2023,ks_nurburgring,rangarajanpraneeth,rangarajanpraneeth,rangarajanpraneeth,3,239.313,573674.625,13050,148,0.15,0.15,0.15,0.15,0.363,0.363,0.363,0.363,1.6,0,0,false,1,0,0,false,0,true,false,true,true,false,0,11,6,5077.904,layout_gp_a,4000000,false,false,rb20_1_verstappen,0,0,0,30
3497,AC_LIVE,AC_PRACTICE,0:11:394,-:--:---,-:--:---, ,0,1,11394,0,0,-14049.304,19.56,0,0,0,0,Soft (C3),1,0.065,-22.38,60.841,-431.946,0,AC_NO_FLAG,false,false,1,false,0,-180,0,0,49.993,1,3177,-0.142,26.454,2.835,-0.173,6.777,0.093,0.029,0.057,0.077,0.082,0.038,0.083,1356.168,2515.695,2764.109,2025.163,17,17,15.038,15.034,20.041,20.501,20.074,20.509,100,100,100,100,0,0,0.011,0.003,26.002,26.002,26.396,26.357,-0.066,0.076,-0.008,0.024,0.104,0.107,0.05,0.047,0,0,-0.372,-0.026,-0.007,0.269,0,0,0,0,0,0,false,0,1,0,true,0.034,0.059,0.001,0,1.099,26,23,-0.005,0.105,-0.043,-0.018,0,6,5,3,1,false,0,true,false,25.996,25.996,26.029,26.029,1,26.719,26.89,38.525,38.473,26.736,26.659,38.231,37.273,26.947,26.609,39.481,37.504,false,-20.965,60.522,-430.435,-22.384,60.517,-429.862,-22.267,60.625,-433.776,-23.68,60.608,-433.224,0.023,0.999,0.027,-0.015,1,0.027,-0.015,1,0.027,0,1,0.021,-0.41,0.034,-0.912,-0.407,0.019,-0.913,-0.36,0.02,-0.933,-0.366,0.02,-0.93,0.53,0.177,0.019,7.346,1.7,1.16.4,1,1,rss_formula_hybrid_2023,ks_nurburgring,rangarajanpraneeth,rangarajanpraneeth,rangarajanpraneeth,3,239.313,573674.625,13050,148,0.15,0.15,0.15,0.15,0.363,0.363,0.363,0.363,1.6,0,0,false,1,0,0,false,0,true,false,true,true,false,0,11,6,5077.904,layout_gp_a,4000000,false,false,rb20_1_verstappen,0,0,0,40
3500,AC_LIVE,AC_PRACTICE,0:11:400,-:--:---,-:--:---, ,0,1,11400,0,0,-14057.279,19.616,0,0,0,0,Soft (C3),1,0.065,-22.363,60.84,-431.905,0,AC_NO_FLAG,false,false,1,false,0,-180,0,0,49.993,1,3179,-0.142,26.474,2.845,-0.17,6.779,0.091,0.033,0.062,0.079,0.081,0.039,0.083,1289.197,2503.005,2849.068,2048.98,17,17,15.038,15.034,20.053,20.514,20.085,20.525,100,100,100,100,0,0,0.01,0.002,26.002,26.002,26.398,26.358,-0.065,0.077,-0.008,0.025,0.104,0.107,0.05,0.047,0,0,-0.373,-0.026,-0.007,0.269,0,0,0,0,0,0,false,0,1,0,true,0.034,0.058,0.001,0,1.099,26,23,-0.004,0.106,-0.045,-0.017,0,6,5,3,1,false,0,true,false,25.996,25.996,26.029,26.029,1,26.72,26.894,38.522,38.469,26.737,26.662,38.229,37.27,26.948,26.612,39.477,37.501,false,-20.938,60.519,-430.375,-22.356,60.516,-429.801,-22.242,60.624,-433.715,-23.655,60.606,-433.162,0.023,0.999,0.027,-0.015,1,0.027,-0.015,1,0.027,0,1,0.021,-0.41,0.034,-0.911,-0.408,0.019,-0.913,-0.361,0.02,-0.932,-0.367,0.02,-0.93,0.53,0.178,0.022,7.352,1.7,1.16.4,1,1,rss_formula_hybrid_2023,ks_nurburgring,rangarajanpraneeth,rangarajanpraneeth,rangarajanpraneeth,3,239.313,573674.625,13050,148,0.15,0.15,0.15,0.15,0.363,0.363,0.363,0.363,1.6,0,0,false,1,0,0,false,0,true,false,true,true,false,0,11,6,5077.904,layout_gp_a,4000000,false,false,rb20_1_verstappen,0,0,0,50
3504,AC_LIVE,AC_PRACTICE,0:11:409,-:--:---,-:--:---, ,0,1,11409,0,0,-14064.94,19.675,0,0,0,0,Soft (C3),1,0.065,-22.337,60.839,-431.844,0,AC_NO_FLAG,false,false,1,false,0,-180,0,0,49.993,1,3181,-0.142,26.503,2.858,-0.166,6.783,0.087,0.035,0.067,0.081,0.079,0.039,0.081,1212.865,2496.749,2932.435,2039.208,17,17,15.038,15.034,20.064,20.528,20.094,20.539,100,100,100,100,0,0,0.008,0,26.002,26.002,26.399,26.36,-0.065,0.077,-0.007,0.024,0.104,0.107,0.05,0.047,0,0,-0.374,-0.026,-0.006,0.269,0,0,0,0,0,0,false,0,1,0,true,0.034,0.058,0.001,0,1.099,26,23,0.001,0.107,-0.046,-0.016,0,6,5,3,1,false,0,true,false,25.996,25.996,26.029,26.029,1,26.721,26.899,38.518,38.465,26.739,26.666,38.225,37.266,26.95,26.616,39.473,37.497,false,-20.902,60.516,-430.295,-22.319,60.514,-429.72,-22.21,60.622,-433.634,-23.623,60.605,-433.079,0.023,0.999,0.027,-0.015,1,0.027,-0.015,1,0.027,0.002,1,0.021,-0.412,0.034,-0.911,-0.409,0.019,-0.912,-0.363,0.02,-0.932,-0.369,0.02,-0.929,0.53,0.179,0.026,7.36,1.7,1.16.4,1,1,rss_formula_hybrid_2023,ks_nurburgring,rangarajanpraneeth,rangarajanpraneeth,rangarajanpraneeth,3,239.313,573674.625,13050,148,0.15,0.15,0.15,0.15,0.363,0.363,0.363,0.363,1.6,0,0,false,1,0,0,false,0,true,false,true,true,false,0,11,6,5077.904,layout_gp_a,4000000,false,false,rb20_1_verstappen,0,0,0,60
3507,AC_LIVE,AC_PRACTICE,0:11:418,-:--:---,-:--:---, ,0,1,11418,0,0,-14072.946,19.731,0,0,0,0,Soft (C3),1,0.065,-22.311,60.837,-431.783,0,AC_NO_FLAG,false,false,1,false,0,-180,0,0,49.993,1,3182,-0.142,26.525,2.866,-0.163,6.786,0.073,0.029,0.07,0.082,0.078,0.039,0.069,1177.603,2501.677,2971.313,1932.377,17,17,15.038,15.035,20.07,20.538,20.096,20.55,100,100,100,100,0,0,0.007,0,26.002,26.002,26.4,26.361,-0.064,0.078,-0.007,0.016,0.103,0.107,0.051,0.047,0,0,-0.375,-0.026,-0.006,0.269,0,0,0,0,0,0,false,0,1,0,true,0.034,0.058,0.001,0,1.099,26,23,0.006,0.108,-0.048,-0.015,0,6,5,3,1,false,0,true,false,25.996,25.996,26.029,26.029,1,26.722,26.903,38.516,38.461,26.74,26.669,38.222,37.263,26.951,26.619,39.47,37.494,false,-20.876,60.514,-430.234,-22.291,60.513,-429.659,-22.186,60.621,-433.573,-23.6,60.603,-433.018,0.023,0.999,0.027,-0.015,1,0.027,-0.015,1,0.027,0.011,1,0.022,-0.413,0.034,-0.91,-0.41,0.019,-0.912,-0.363,0.02,-0.931,-0.369,0.025,-0.929,0.53,0.179,0.029,7.366,1.7,1.16.4,1,1,rss_formula_hybrid_2023,ks_nurburgring,rangarajanpraneeth,rangarajanpraneeth,rangarajanpraneeth,3,239.313,573674.625,13050,148,0.15,0.15,0.15,0.15,0.363,0.363,0.363,0.363,1.6,0,0,false,1,0,0,false,0,true,false,true,true,false,0,11,6,5077.904,layout_gp_a,4000000,false,false,rb20_1_verstappen,0,0,0,70
3510,AC_LIVE,AC_PRACTICE,0:11:433,-:--:---,-:--:---, ,0,1,11433,0,0,-14088.604,19.846,0,0,0,0,Soft (C3),1,0.065,-22.268,60.835,-431.681,0,AC_NO_FLAG,false,false,1,false,0,-180,0,0,49.993,1,3184,-0.142,26.548,2.874,-0.162,6.789,0.066,0.013,0.069,0.084,0.076,0.036,0.07,1152.583,2519.695,2986.273,1781.931,17,17,15.038,15.035,20.075,20.554,20.094,20.568,100,100,100,100,0,0,0.006,0,26.002,26.002,26.401,26.362,-0.064,0.078,-0.007,0.015,0.103,0.107,0.051,0.046,0,0,-0.376,-0.026,-0.006,0.27,0,0,0,0,0,0,false,0,1,0,true,0.035,0.058,0.001,0,1.099,26,23,0.011,0.11,-0.046,-0.014,0,6,5,3,1,false,0,true,false,25.996,25.996,26.029,26.029,1,26.723,26.907,38.513,38.457,26.741,26.672,38.22,37.259,26.953,26.622,39.467,37.49,false,-20.849,60.512,-430.174,-22.263,60.512,-429.598,-22.162,60.619,-433.513,-23.579,60.602,-432.954,0.023,0.999,0.027,-0.015,1,0.027,-0.015,1,0.027,0.012,1,0.023,-0.413,0.034,-0.91,-0.411,0.018,-0.912,-0.364,0.02,-0.931,-0.37,0.026,-0.929,0.53,0.178,0.032,7.372,1.7,1.16.4,1,1,rss_formula_hybrid_2023,ks_nurburgring,rangarajanpraneeth,rangarajanpraneeth,rangarajanpraneeth,3,239.313,573674.625,13050,148,0.15,0.15,0.15,0.15,0.363,0.363,0.363,0.363,1.6,0,0,false,1,0,0,false,0,true,false,true,true,false,0,11,6,5077.904,layout_gp_a,4000000,false,false,rb20_1_verstappen,0,0,0,80
3514,AC_LIVE,AC_PRACTICE,0:11:439,-:--:---,-:--:---, ,0,1,11439,0,0,-14096.236,19.905,0,0,0,0,Soft (C3),1,0.065,-22.251,60.834,-431.64,0,AC_NO_FLAG,false,false,1,false,0,-180,0,0,49.993,1,3186,-0.142,26.576,2.884,-0.162,6.794,0.058,-0.012,0.065,0.088,0.073,0.032,0.065,1121.917,2566.508,2979.576,1565.329,17,17,15.039,15.035,20.085,20.58,20.104,20.591,100,100,100,100,0,0,0.005,0,26.002,26.002,26.402,26.363,-0.063,0.079,-0.006,0.009,0.103,0.107,0.051,0.046,0,0,-0.378,-0.027,-0.005,0.27,0,0,0,0,0,0,false,0,1,0,true,0.035,0.058,0.001,0,1.099,26,23,0.014,0.113,-0.039,-0.012,0,6,5,3,1,false,0,true,false,25.996,25.996,26.029,26.029,1,26.724,26.912,38.509,38.452,26.742,26.677,38.216,37.254,26.955,26.626,39.463,37.486,false,-20.813,60.509,-430.093,-22.225,60.51,-429.516,-22.129,60.618,-433.431,-23.554,60.599,-432.87,0.023,0.999,0.027,-0.015,1,0.027,-0.015,1,0.027,0.02,1,0.024,-0.415,0.034,-0.909,-0.412,0.018,-0.911,-0.366,0.02,-0.931,-0.372,0.029,-0.928,0.53,0.175,0.032,7.38,1.7,1.16.4,1,1,rss_formula_hybrid_2023,ks_nurburgring,rangarajanpraneeth,rangarajanpraneeth,rangarajanpraneeth,3,239.313,573674.625,13050,148,0.15,0.15,0.15,0.15,0.363,0.363,0.363,0.363,1.6,0,0,false,1,0,0,false,0,true,false,true,true,false,0,11,6,5077.904,layout_gp_a,4000000,false,false,rb20_1_verstappen,0,0,0,90
3517,AC_LIVE,AC_PRACTICE,0:11:448,-:--:---,-:--:---, ,0,1,11448,0,0,-14104.432,19.962,0,0,0,0,Soft (C3),1,0.065,-22.225,60.832,-431.579,0,AC_NO_FLAG,false,false,1,false,0,-180,0,0,49.993,1,3189,-0.142,26.597,2.891,-0.165,6.797,0.056,-0.034,0.061,0.092,0.07,0.029,0.07,1096.06,2610.372,2966.297,1404.381,17,17,15.039,15.035,20.098,20.601,20.115,20.615,100,100,100,100,0,0,0.004,0,26.002,26.002,26.403,26.364,-0.063,0.079,-0.006,0.01,0.103,0.107,0.052,0.046,0,0,-0.379,-0.027,-0.005,0.27,0,0,0,0,0,0,false,0,1,0,true,0.035,0.058,0.001,0,1.099,26,23,0.014,0.115,-0.03,-0.011,0,6,5,3,1,false,0,true,false,25.996,25.996,26.029,26.029,1,26.725,26.916,38.507,38.448,26.743,26.68,38.213,37.251,26.956,26.629,39.46,37.482,false,-20.786,60.507,-430.032,-22.197,60.509,-429.455,-22.105,60.616,-433.37,-23.534,60.597,-432.805,0.023,0.999,0.027,-0.015,1,0.027,-0.015,1,0.027,0.019,1,0.023,-0.416,0.034,-0.909,-0.413,0.018,-0.911,-0.367,0.02,-0.93,-0.372,0.029,-0.928,0.53,0.173,0.031,7.386,1.7,1.16.4,1,1,rss_formula_hybrid_2023,ks_nurburgring,rangarajanpraneeth,rangarajanpraneeth,rangarajanpraneeth,3,239.313,573674.625,13050,148,0.15,0.15,0.15,0.15,0.363,0.363,0.363,0.363,1.6,0,0,false,1,0,0,false,0,true,false,true,true,false,0,11,6,5077.904,layout_gp_a,4000000,false,false,rb20_1_verstappen,0,0,0,100
3520,AC_LIVE,AC_PRACTICE,0:11:457,-:--:---,-:--:---, ,0,1,11457,0,0,-14112.041,20.022,0,0,0,0,Soft (C3),1,0.065,-22.199,60.831,-431.518,0,AC_NO_FLAG,false,false,1,false,0,-180,0,0,49.993,1,3192,-0.142,26.616,2.897,-0.169,6.8,0.057,-0.049,0.058,0.096,0.067,0.026,0.067,1062.556,2664.017,2953.308,1288.673,17,17,15.039,15.035,20.115,20.625,20.131,20.64,100,100,100,100,0,0,0.003,0,26.002,26.002,26.404,26.365,-0.063,0.079,-0.006,0.006,0.103,0.107,0.052,0.045,0,0,-0.38,-0.027,-0.005,0.27,0,0,0,0,0,0,false,0,1,0,true,0.035,0.059,0.001,0,1.099,26,23,0.012,0.117,-0.019,-0.01,0,6,5,3,1,false,0,true,false,25.996,25.996,26.029,26.029,1,26.726,26.92,38.504,38.443,26.745,26.684,38.21,37.247,26.957,26.632,39.456,37.478,false,-20.759,60.505,-429.971,-22.169,60.507,-429.393,-22.081,60.615,-433.309,-23.513,60.595,-432.741,0.023,0.999,0.027,-0.015,1,0.027,-0.015,1,0.027,0.024,0.999,0.024,-0.417,0.034,-0.908,-0.414,0.018,-0.91,-0.367,0.02,-0.93,-0.373,0.031,-0.927,0.53,0.17,0.028,7.391,1.7,1.16.4,1,1,rss_formula_hybrid_2023,ks_nurburgring,rangarajanpraneeth,rangarajanpraneeth,rangarajanpraneeth,3,239.313,573674.625,13050,148,0.15,0.15,0.15,0.15,0.363,0.363,0.363,0.363,1.6,0,0,false,1,0,0,false,0,true,false,true,true,false,0,11,6,5077.904,layout_gp_a,4000000,false,false,rb20_1_verstappen,0,0,0,110
3524,AC_LIVE,AC_PRACTICE,0:11:472,-:--:---,-:--:---, ,0,1,11472,0,0,-14127.573,20.138,0,0,0,0,Soft (C3),1,0.065,-22.156,60.828,-431.416,0,AC_NO_FLAG,false,false,1,false,0,-180,0,0,49.993,1,3197,-0.142,26.64,2.905,-0.176,6.803,0.055,-0.067,0.055,0.1,0.064,0.022,0.068,980.93,2745.763,2953.049,1169.406,17,17,15.039,15.035,20.141,20.658,20.159,20.674,100,100,100,100,0,0,0.002,0,26.002,26.002,26.406,26.366,-0.063,0.079,-0.006,0.004,0.103,0.107,0.052,0.045,0,0,-0.381,-0.027,-0.005,0.27,0,0,0,0,0,0,false,0,1,0,true,0.035,0.059,0.001,0,1.099,26,23,0.007,0.118,-0.005,-0.009,0,6,5,3,1,false,0,true,false,25.996,25.996,26.029,26.029,1,26.728,26.926,38.5,38.437,26.746,26.689,38.206,37.241,26.959,26.637,39.452,37.472,false,-20.723,60.502,-429.89,-22.133,60.506,-429.311,-22.049,60.613,-433.228,-23.48,60.593,-432.658,0.023,0.999,0.027,-0.015,1,0.027,-0.015,1,0.027,0.026,0.999,0.024,-0.418,0.034,-0.908,-0.415,0.018,-0.91,-0.369,0.02,-0.929,-0.375,0.032,-0.927,0.53,0.166,0.022,7.398,1.7,1.16.4,1,1,rss_formula_hybrid_2023,ks_nurburgring,rangarajanpraneeth,rangarajanpraneeth,rangarajanpraneeth,3,239.313,573674.625,13050,148,0.15,0.15,0.15,0.15,0.363,0.363,0.363,0.363,1.6,0,0,false,1,0,0,false,0,true,false,true,true,false,0,11,6,5077.904,layout_gp_a,4000000,false,false,rb20_1_verstappen,0,0,0,120
3527,AC_LIVE,AC_PRACTICE,0:11:481,-:--:---,-:--:---, ,0,1,11481,0,0,-14135.516,20.193,0,0,0,0,Soft (C3),1,0.065,-22.129,60.826,-431.355,0,AC_NO_FLAG,false,false,1,false,0,-180,0,0,49.993,1,3201,-0.142,26.658,2.912,-0.182,6.806,0.06,-0.073,0.055,0.103,0.061,0.021,0.07,919.275,2811.424,2972.902,1137.523,17,17,15.039,15.035,20.162,20.683,20.181,20.7,100,100,100,100,0,0,0.001,0,26.002,26.002,26.407,26.367,-0.063,0.079,-0.006,0.004,0.103,0.107,0.052,0.044,0,0,-0.382,-0.027,-0.005,0.27,0,0,0,0,0,0,false,0,1,0,true,0.035,0.059,0.001,0,1.099,26,23,0.002,0.119,0.004,-0.008,0,6,5,3,1,false,0,true,false,25.996,25.996,26.029,26.029,1,26.728,26.931,38.497,38.433,26.747,26.693,38.203,37.237,26.96,26.641,39.449,37.468,false,-20.698,60.499,-429.829,-22.105,60.505,-429.25,-22.025,60.612,-433.167,-23.455,60.59,-432.595,0.023,0.999,0.027,-0.015,1,0.027,-0.015,1,0.027,0.026,0.999,0.024,-0.419,0.034,-0.907,-0.416,0.018,-0.909,-0.37,0.02,-0.929,-0.376,0.032,-0.926,0.53,0.163,0.016,7.403,1.7,1.16.4,1,1,rss_formula_hybrid_2023,ks_nurburgring,rangarajanpraneeth,rangarajanpraneeth,rangarajanpraneeth,3,239.313,573674.625,13050,148,0.15,0.15,0.15,0.15,0.363,0.363,0.363,0.363,1.6,0,0,false,1,0,0,false,0,true,false,true,true,false,0,11,6,5077.904,layout_gp_a,4000000,false,false,rb20_1_verstappen,0,0,0,130
3530,AC_LIVE,AC_PRACTICE,0:11:487,-:--:---,-:--:---, ,0,1,11487,0,0,-14143.093,20.252,0,0,0,0,Soft (C3),1,0.065,-22.112,60.825,-431.314,0,AC_NO_FLAG,false,false,1,false,0,-180,0,0,49.993,1,3204,-0.142,26.675,2.919,-0.189,6.808,0.068,-0.073,0.055,0.105,0.06,0.019,0.072,808.801,2871.042,3015.103,1143.446,17,17,15.039,15.035,20.184,20.707,20.203,20.725,100,100,100,100,0,0,0,0,26.002,26.002,26.408,26.368,-0.063,0.079,-0.006,0.004,0.102,0.107,0.053,0.044,0,0,-0.383,-0.027,-0.005,0.27,0,0,0,0,0,0,false,0,1,0,true,0.035,0.059,0.001,0,1.099,26,23,-0.003,0.119,0.011,-0.01,0,6,5,3,1,false,0,true,false,25.996,25.996,26.029,26.029,1,26.729,26.936,38.495,38.428,26.748,26.697,38.2,37.233,26.961,26.644,39.446,37.464,false,-20.671,60.497,-429.77,-22.077,60.503,-429.188,-22,60.611,-433.105,-23.431,60.588,-432.532,0.023,0.999,0.027,-0.015,1,0.027,-0.015,1,0.027,0.026,0.999,0.024,-0.42,0.034,-0.907,-0.417,0.018,-0.909,-0.371,0.02,-0.929,-0.377,0.032,-0.926,0.53,0.161,0.009,7.408,1.7,1.16.4,1,1,rss_formula_hybrid_2023,ks_nurburgring,rangarajanpraneeth,rangarajanpraneeth,rangarajanpraneeth,3,239.313,573674.625,13050,148,0.15,0.15,0.15,0.15,0.363,0.363,0.363,0.363,1.6,0,0,false,1,0,0,false,0,true,false,true,true,false,0,11,6,5077.904,layout_gp_a,4000000,false,false,rb20_1_verstappen,0,0,0,140
3534,AC_LIVE,AC_PRACTICE,0:11:502,-:--:---,-:--:---, ,0,1,11502,0,0,-14158.763,20.367,0,0,0,0,Soft (C3),1,0.065,-22.068,60.822,-431.212,0,AC_NO_FLAG,false,false,1,false,0,-180,0,0,49.993,1,3209,-0.142,26.7,2.93,-0.197,6.811,0.084,-0.069,0.058,0.107,0.058,0.019,0.074,661.415,2956.729,3099.425,1184.345,17,17,15.039,15.035,20.208,20.734,20.228,20.754,100,100,100,100,0,0,0,0,26.002,26.002,26.409,26.369,-0.063,0.079,-0.006,0.004,0.102,0.108,0.053,0.044,0,0,-0.385,-0.027,-0.005,0.27,0,0,0,0,0,0,false,0,1,0,true,0.035,0.059,0.001,0,1.099,26,23,-0.007,0.12,0.013,-0.011,0,6,5,3,1,false,0,true,false,25.996,25.996,26.029,26.029,1,26.73,26.943,38.491,38.422,26.748,26.703,38.197,37.227,26.962,26.649,39.442,37.458,false,-20.634,60.494,-429.692,-22.041,60.502,-429.106,-21.968,60.609,-433.024,-23.398,60.585,-432.448,0.023,0.999,0.027,-0.015,1,0.027,-0.015,1,0.027,0.026,0.999,0.024,-0.421,0.034,-0.906,-0.418,0.018,-0.908,-0.372,0.02,-0.928,-0.378,0.032,-0.925,0.53,0.159,0,7.415,1.7,1.16.4,1,1,rss_formula_hybrid_2023,ks_nurburgring,rangarajanpraneeth,rangarajanpraneeth,rangarajanpraneeth,3,239.313,573674.625,13050,148,0.15,0.15,0.15,0.15,0.363,0.363,0.363,0.363,1.6,0,0,false,1,0,0,false,0,true,false,true,true,false,0,11,6,5077.904,layout_gp_a,4000000,false,false,rb20_1_verstappen,0,0,0,150
3537,AC_LIVE,AC_PRACTICE,0:11:511,-:--:---,-:--:---, ,0,1,11511,0,0,-14166.731,20.424,0,0,0,0,Soft (C3),1,0.065,-22.042,60.821,-431.151,0,AC_NO_FLAG,false,false,1,false,0,-180,0,0,49.993,1,3211,-0.142,26.72,2.939,-0.203,6.812,0.086,-0.06,0.06,0.108,0.057,0.023,0.076,566.428,3024.109,3163.668,1220.455,17,17,15.039,15.035,20.223,20.753,20.243,20.775,100,100,100,100,0,0,0,0,26.002,26.002,26.41,26.37,-0.063,0.079,-0.013,0.003,0.102,0.108,0.053,0.043,0,0,-0.386,-0.027,-0.005,0.27,0,0,0,0,0,0,false,0,1,0,true,0.035,0.059,0.001,0,1.099,26,23,-0.008,0.121,0.009,-0.012,0,6,5,3,1,false,0,true,false,25.996,25.996,26.029,26.029,1,26.73,26.948,38.489,38.417,26.749,26.707,38.194,37.223,26.963,26.653,39.439,37.454,false,-20.607,60.492,-429.634,-22.013,60.5,-429.044,-21.944,60.608,-432.963,-23.373,60.583,-432.385,0.023,0.999,0.027,-0.015,1,0.027,-0.008,1,0.027,0.026,0.999,0.024,-0.422,0.034,-0.906,-0.419,0.018,-0.908,-0.373,0.022,-0.927,-0.379,0.032,-0.925,0.53,0.159,-0.006,7.42,1.7,1.16.4,1,1,rss_formula_hybrid_2023,ks_nurburgring,rangarajanpraneeth,rangarajanpraneeth,rangarajanpraneeth,3,239.313,573674.625,13050,148,0.15,0.15,0.15,0.15,0.363,0.363,0.363,0.363,1.6,0,0,false,1,0,0,false,0,true,false,true,true,false,0,11,6,5077.904,layout_gp_a,4000000,false,false,rb20_1_verstappen,0,0,0,160
3540,AC_LIVE,AC_PRACTICE,0:11:520,-:--:---,-:--:---, ,0,1,11520,0,0,-14174.342,20.483,0,0,0,0,Soft (C3),1,0.066,-22.015,60.819,-431.089,0,AC_NO_FLAG,false,false,1,false,0,-180,0,0,49.993,1,3214,-0.142,26.74,2.948,-0.208,6.814,0.087,-0.051,0.063,0.108,0.056,0.024,0.081,485.045,3089.252,3225.119,1243.801,17,17,15.039,15.036,20.234,20.773,20.252,20.796,100,100,100,100,0,0,0,0,26.002,26.002,26.411,26.371,-0.063,0.079,-0.017,0.003,0.102,0.108,0.053,0.043,0,0,-0.387,-0.027,-0.005,0.27,0,0,0,0,0,0,false,0,1,0,true,0.035,0.059,0,0,1.099,26,23,-0.008,0.123,-0.001,-0.012,0,6,5,3,1,false,0,true,false,25.996,25.996,26.029,26.029,1,26.731,26.953,38.486,38.413,26.749,26.711,38.192,37.219,26.963,26.657,39.436,37.451,false,-20.579,60.49,-429.577,-21.985,60.499,-428.983,-21.922,60.606,-432.901,-23.348,60.581,-432.323,0.023,0.999,0.027,-0.015,1,0.027,-0.005,1,0.027,0.026,0.999,0.024,-0.423,0.034,-0.905,-0.42,0.018,-0.907,-0.374,0.023,-0.927,-0.38,0.032,-0.924,0.53,0.158,-0.011,7.426,1.7,1.16.4,1,1,rss_formula_hybrid_2023,ks_nurburgring,rangarajanpraneeth,rangarajanpraneeth,rangarajanpraneeth,3,239.313,573674.625,13050,148,0.15,0.15,0.15,0.15,0.363,0.363,0.363,0.363,1.6,0,0,false,1,0,0,false,0,true,false,true,true,false,0,11,6,5077.904,layout_gp_a,4000000,false,false,rb20_1_verstappen,0,0,0,170
3544,AC_LIVE,AC_PRACTICE,0:11:535,-:--:---,-:--:---, ,0,1,11535,0,0,-14189.776,20.599,0,0,0,0,Soft (C3),1,0.066,-21.971,60.816,-430.987,0,AC_NO_FLAG,false,false,1,false,0,-180,0,0,49.993,1,3216,-0.142,26.768,2.962,-0.213,6.817,0.11,-0.038,0.065,0.109,0.055,0.019,0.089,424.468,3173.994,3347.811,1234.37,17,17,15.04,15.036,20.244,20.798,20.259,20.824,100,100,100,100,0,0,0,0,26.002,26.002,26.412,26.372,-0.063,0.079,-0.016,0.003,0.102,0.108,0.054,0.043,0,0,-0.388,-0.027,-0.005,0.27,0,0,0,0,0,0,false,0,1,0,true,0.035,0.059,0,0,1.099,26,23,-0.006,0.126,-0.018,-0.011,0,6,5,3,1,false,0,true,false,25.996,25.996,26.029,26.029,1,26.731,26.96,38.484,38.407,26.75,26.717,38.189,37.214,26.964,26.663,39.433,37.445,false,-20.542,60.487,-429.497,-21.947,60.497,-428.901,-21.893,60.604,-432.817,-23.314,60.578,-432.239,0.023,0.999,0.027,-0.015,1,0.027,-0.006,1,0.027,0.026,0.999,0.024,-0.424,0.034,-0.905,-0.422,0.018,-0.907,-0.376,0.023,-0.926,-0.381,0.032,-0.924,0.53,0.159,-0.017,7.434,1.7,1.16.4,1,1,rss_formula_hybrid_2023,ks_nurburgring,rangarajanpraneeth,rangarajanpraneeth,rangarajanpraneeth,3,239.313,573674.625,13050,148,0.15,0.15,0.15,0.15,0.363,0.363,0.363,0.363,1.6,0,0,false,1,0,0,false,0,true,false,true,true,false,0,11,6,5077.904,layout_gp_a,4000000,false,false,rb20_1_verstappen,0,0,0,180
3547,AC_LIVE,AC_PRACTICE,0:11:541,-:--:---,-:--:---, ,0,1,11541,0,0,-14197.428,20.655,0,0,0,0,Soft (C3),1,0.066,-21.953,60.814,-430.946,0,AC_NO_FLAG,false,false,1,false,0,-180,0,0,49.993,1,3218,-0.142,26.789,2.974,-0.216,6.818,0.114,-0.024,0.065,0.11,0.055,0.019,0.095,407.532,3236.692,3435.529,1202.706,17,17,15.04,15.036,20.252,20.81,20.27,20.837,100,100,100,100,0,0,0,0,26.002,26.002,26.413,26.373,-0.063,0.079,-0.02,0.004,0.101,0.108,0.054,0.043,0,0,-0.39,-0.027,-0.005,0.27,0,0,0,0,0,0,false,0,1,0,true,0.035,0.059,0,0,1.099,26,23,-0.004,0.127,-0.029,-0.01,0,6,5,3,1,false,0,true,false,25.996,25.996,26.029,26.029,1,26.731,26.965,38.482,38.403,26.75,26.722,38.187,37.21,26.964,26.667,39.431,37.442,false,-20.513,60.485,-429.437,-21.918,60.496,-428.84,-21.872,60.602,-432.755,-23.289,60.576,-432.176,0.023,0.999,0.027,-0.015,1,0.027,-0.001,1,0.027,0.026,0.999,0.024,-0.425,0.034,-0.904,-0.423,0.018,-0.906,-0.377,0.025,-0.926,-0.382,0.032,-0.923,0.53,0.161,-0.02,7.44,1.7,1.16.4,1,1,rss_formula_hybrid_2023,ks_nurburgring,rangarajanpraneeth,rangarajanpraneeth,rangarajanpraneeth,3,239.313,573674.625,13050,148,0.15,0.15,0.15,0.15,0.363,0.363,0.363,0.363,1.6,0,0,false,1,0,0,false,0,true,false,true,true,false,0,11,6,5077.904,layout_gp_a,4000000,false,false,rb20_1_verstappen,0,0,0,190
3550,AC_LIVE,AC_PRACTICE,0:11:550,-:--:---,-:--:---, ,0,1,11550,0,0,-14204.687,20.712,0,0,0,0,Soft (C3),1,0.066,-21.926,60.812,-430.885,0,AC_NO_FLAG,false,false,1,false,0,-180,0,0,49.993,1,3221,-0.142,26.811,2.985,-0.217,6.82,0.111,-0.012,0.065,0.111,0.052,0.02,0.101,406.174,3289.784,3501.927,1148.261,17,17,15.04,15.036,20.263,20.826,20.283,20.852,100,100,100,100,0,0,0,0,26.002,26.002,26.414,26.374,-0.062,0.078,-0.024,0.004,0.101,0.108,0.054,0.042,0,0,-0.391,-0.026,-0.005,0.27,0,0,0,0,0,0,false,0,1,0,true,0.035,0.059,0,0,1.099,26,23,-0.002,0.129,-0.039,-0.006,0,6,5,3,1,false,0,true,false,25.996,25.996,26.029,26.029,1,26.731,26.971,38.48,38.398,26.75,26.727,38.186,37.206,26.964,26.671,39.429,37.438,false,-20.485,60.483,-429.377,-21.889,60.495,-428.778,-21.851,60.601,-432.693,-23.263,60.574,-432.114,0.023,0.999,0.027,-0.014,1,0.027,0.004,1,0.027,0.026,0.999,0.024,-0.427,0.034,-0.904,-0.424,0.019,-0.906,-0.378,0.026,-0.926,-0.383,0.032,-0.923,0.53,0.162,-0.021,7.446,1.7,1.16.4,1,1,rss_formula_hybrid_2023,ks_nurburgring,rangarajanpraneeth,rangarajanpraneeth,rangarajanpraneeth,3,239.313,573674.625,13050,148,0.15,0.15,0.15,0.15,0.363,0.363,0.363,0.363,1.6,0,0,false,1,0,0,false,0,true,false,true,true,false,0,11,6,5077.904,layout_gp_a,4000000,false,false,rb20_1_verstappen,0,0,0,200
3554,AC_LIVE,AC_PRACTICE,0:11:565,-:--:---,-:--:---, ,0,1,11565,0,0,-14219.605,20.822,0,0,0,0,Soft (C3),1,0.066,-21.881,60.809,-430.782,0,AC_NO_FLAG,false,false,1,false,0,-180,0,0,49.993,1,3224,-0.142,26.839,3,-0.218,6.822,0.111,-0.005,0.065,0.111,0.044,0.017,0.109,421.357,3304.003,3597.619,1054.548,17,17,15.04,15.036,20.28,20.849,20.295,20.879,100,100,100,100,0,0,0,0,26.002,26.002,26.416,26.376,-0.062,0.073,-0.025,0.004,0.101,0.109,0.055,0.042,0,0,-0.392,-0.026,-0.004,0.27,0,0,0,0,0,0,false,0,1,0,true,0.035,0.059,0,0,1.099,26,23,-0.001,0.129,-0.05,0.01,0,6,5,3,1,false,0,true,false,25.996,25.996,26.029,26.029,1,26.731,26.979,38.478,38.392,26.75,26.733,38.184,37.201,26.965,26.677,39.427,37.432,false,-20.447,60.48,-429.298,-21.852,60.493,-428.697,-21.824,60.598,-432.609,-23.227,60.571,-432.03,0.023,0.999,0.027,-0.007,1,0.027,0.006,1,0.027,0.026,0.999,0.024,-0.428,0.034,-0.903,-0.425,0.021,-0.905,-0.379,0.027,-0.925,-0.385,0.032,-0.922,0.53,0.164,-0.022,7.453,1.7,1.16.4,1,1,rss_formula_hybrid_2023,ks_nurburgring,rangarajanpraneeth,rangarajanpraneeth,rangarajanpraneeth,3,239.313,573674.625,13050,148,0.15,0.15,0.15,0.15,0.363,0.363,0.363,0.363,1.6,0,0,false,1,0,0,false,0,true,false,true,true,false,0,11,6,5077.904,layout_gp_a,4000000,false,false,rb20_1_verstappen,0,0,0,210
3557,AC_LIVE,AC_PRACTICE,0:11:571,-:--:---,-:--:---, ,0,1,11571,0,0,-14227.484,20.877,0,0,0,0,Soft (C3),1,0.066,-21.863,60.808,-430.741,0,AC_NO_FLAG,false,false,1,false,0,-180,0,0,49.993,1,3226,-0.142,26.86,3.011,-0.219,6.823,0.098,-0.005,0.065,0.11,0.039,0.018,0.112,437.234,3268.848,3648.567,977.371,17,17,15.04,15.036,20.296,20.856,20.316,20.893,100,100,100,100,0,0,0,0,26.002,26.002,26.417,26.376,-0.061,0.07,-0.03,0.005,0.101,0.109,0.055,0.042,0,0,-0.393,-0.026,-0.004,0.27,0,0,0,0,0,0,false,0,1,0,true,0.035,0.059,0,0,1.099,26,23,0,0.128,-0.053,0.017,0,6,5,3,1,false,0,true,false,25.996,25.996,26.029,26.029,1,26.731,26.984,38.477,38.388,26.75,26.738,38.182,37.197,26.965,26.682,39.426,37.428,false,-20.418,60.477,-429.238,-21.826,60.492,-428.635,-21.803,60.596,-432.547,-23.2,60.569,-431.968,0.023,0.999,0.027,-0.003,1,0.027,0.011,1,0.027,0.026,0.999,0.024,-0.429,0.034,-0.903,-0.426,0.023,-0.904,-0.38,0.029,-0.924,-0.386,0.032,-0.922,0.53,0.165,-0.022,7.459,1.7,1.16.4,1,1,rss_formula_hybrid_2023,ks_nurburgring,rangarajanpraneeth,rangarajanpraneeth,rangarajanpraneeth,3,239.313,573674.625,13050,148,0.15,0.15,0.15,0.15,0.363,0.363,0.363,0.363,1.6,0,0,false,1,0,0,false,0,true,false,true,true,false,0,11,6,5077.904,layout_gp_a,4000000,false,false,rb20_1_verstappen,0,0,0,220
3560,AC_LIVE,AC_PRACTICE,0:11:580,-:--:---,-:--:---, ,0,1,11580,0,0,-14234.566,20.936,0,0,0,0,Soft (C3),1,0.066,-21.836,60.806,-430.68,0,AC_NO_FLAG,false,false,1,false,0,-180,0,0,49.993,1,3229,-0.142,26.882,3.019,-0.22,6.826,0.059,-0.016,0.066,0.107,0.03,0.022,0.115,453.616,3200.342,3655.161,904.472,17,17,15.04,15.036,20.315,20.868,20.342,20.906,100,100,100,100,0,0,0,0,26.002,26.002,26.418,26.377,-0.061,0.062,-0.035,0.005,0.101,0.109,0.055,0.042,0,0,-0.395,-0.026,-0.003,0.27,0,0,0,0,0,0,false,0,1,0,true,0.035,0.059,0,0,1.099,26,23,0.002,0.128,-0.053,0.028,0,6,5,3,1,false,0,true,false,25.996,25.996,26.029,26.029,1,26.732,26.99,38.475,38.383,26.751,26.743,38.181,37.192,26.966,26.686,39.425,37.424,false,-20.389,60.475,-429.179,-21.8,60.49,-428.572,-21.781,60.594,-432.485,-23.173,60.566,-431.906,0.023,0.999,0.027,0.006,1,0.027,0.017,0.999,0.027,0.026,0.999,0.024,-0.43,0.034,-0.902,-0.427,0.027,-0.904,-0.381,0.031,-0.924,-0.387,0.032,-0.922,0.53,0.163,-0.023,7.465,1.7,1.16.4,1,1,rss_formula_hybrid_2023,ks_nurburgring,rangarajanpraneeth,rangarajanpraneeth,rangarajanpraneeth,3,239.313,573674.625,13050,148,0.15,0.15,0.15,0.15,0.363,0.363,0.363,0.363,1.6,0,0,false,1,0,0,false,0,true,false,true,true,false,0,11,6,5077.904,layout_gp_a,4000000,false,false,rb20_1_verstappen,0,0,0,230
3564,AC_LIVE,AC_PRACTICE,0:11:595,-:--:---,-:--:---, ,0,1,11595,0,0,-14249.558,21.046,0,0,0,0,Soft (C3),1,0.066,-21.79,60.802,-430.578,0,AC_NO_FLAG,false,false,1,false,0,-180,0,0,49.993,1,3233,-0.142,26.911,3.028,-0.224,6.831,0.049,-0.039,0.068,0.102,0.026,0.022,0.118,476.575,3106.165,3643.708,815.892,17,17,15.04,15.036,20.339,20.888,20.361,20.937,100,100,100,100,0,0,0,0,26.002,26.002,26.419,26.379,-0.06,0.057,-0.037,0.006,0.101,0.109,0.056,0.041,0,0,-0.396,-0.026,-0.003,0.27,0,0,0,0,0,0,false,0,1,0,true,0.035,0.059,0,0,1.099,26,23,0.003,0.126,-0.046,0.032,0,6,5,3,1,false,0,true,false,25.996,25.996,26.029,26.029,1,26.732,26.997,38.473,38.376,26.751,26.749,38.179,37.186,26.966,26.692,39.423,37.418,false,-20.351,60.472,-429.099,-21.765,60.487,-428.489,-21.751,60.592,-432.402,-23.135,60.563,-431.824,0.023,0.999,0.027,0.012,1,0.027,0.02,0.999,0.027,0.026,0.999,0.024,-0.431,0.034,-0.902,-0.429,0.029,-0.903,-0.383,0.032,-0.923,-0.388,0.032,-0.921,0.53,0.157,-0.026,7.473,1.7,1.16.4,1,1,rss_formula_hybrid_2023,ks_nurburgring,rangarajanpraneeth,rangarajanpraneeth,rangarajanpraneeth,3,239.313,573674.625,13050,148,0.15,0.15,0.15,0.15,0.363,0.363,0.363,0.363,1.6,0,0,false,1,0,0,false,0,true,false,true,true,false,0,11,6,5077.904,layout_gp_a,4000000,false,false,rb20_1_verstappen,0,0,0,240
3567,AC_LIVE,AC_PRACTICE,0:11:601,-:--:---,-:--:---, ,0,1,11601,0,0,-14257.177,21.1,0,0,0,0,Soft (C3),1,0.066,-21.772,60.801,-430.537,0,AC_NO_FLAG,false,false,1,false,0,-180,0,0,49.993,1,3236,-0.142,26.933,3.034,-0.228,6.835,0.048,-0.054,0.07,0.097,0.025,0.021,0.12,494.521,3038.51,3636.172,769.899,17,17,15.04,15.036,20.356,20.898,20.381,20.954,100,100,100,100,0,0,0,0,26.002,26.002,26.42,26.38,-0.06,0.054,-0.037,0.006,0.101,0.108,0.056,0.041,0,0,-0.397,-0.027,-0.002,0.27,0,0,0,0,0,0,false,0,1,0,true,0.035,0.059,0,0,1.099,26,23,0.004,0.125,-0.036,0.034,0,6,5,3,1,false,0,true,false,25.996,25.996,26.029,26.029,1,26.732,27.002,38.472,38.371,26.751,26.753,38.178,37.182,26.966,26.696,39.422,37.414,false,-20.322,60.47,-429.039,-21.739,60.485,-428.427,-21.728,60.589,-432.34,-23.107,60.561,-431.763,0.023,0.999,0.027,0.016,1,0.027,0.02,0.999,0.027,0.026,0.999,0.024,-0.432,0.034,-0.901,-0.43,0.031,-0.902,-0.384,0.032,-0.923,-0.389,0.032,-0.92,0.53,0.153,-0.03,7.48,1.7,1.16.4,1,1,rss_formula_hybrid_2023,ks_nurburgring,rangarajanpraneeth,rangarajanpraneeth,rangarajanpraneeth,3,239.313,573674.625,13050,148,0.15,0.15,0.15,0.15,0.363,0.363,0.363,0.363,1.6,0,0,false,1,0,0,false,0,true,false,true,true,false,0,11,6,5077.904,layout_gp_a,4000000,false,false,rb20_1_verstappen,0,0,0,250
3570,AC_LIVE,AC_PRACTICE,0:11:610,-:--:---,-:--:---, ,0,1,11610,0,0,-14264.522,21.157,0,0,0,0,Soft (C3),1,0.066,-21.745,60.799,-430.475,0,AC_NO_FLAG,false,false,1,false,0,-180,0,0,49.993,1,3239,-0.142,26.956,3.04,-0.234,6.839,0.046,-0.066,0.07,0.092,0.025,0.023,0.128,508.256,2999.06,3595.455,770.472,17,17,15.04,15.036,20.374,20.912,20.411,20.961,100,100,100,100,0,0,0,0,26.002,26.002,26.421,26.381,-0.06,0.051,-0.039,0.011,0.101,0.108,0.056,0.041,0,0,-0.398,-0.027,-0.002,0.271,0,0,0,0,0,0,false,0,1,0,true,0.035,0.06,0,0,1.099,26,23,0.006,0.123,-0.023,0.033,0,6,5,3,1,false,0,true,false,25.996,25.996,26.029,26.029,1,26.732,27.006,38.47,38.366,26.751,26.757,38.177,37.177,26.967,26.7,39.42,37.409,false,-20.293,60.468,-428.978,-21.712,60.483,-428.364,-21.703,60.587,-432.278,-23.077,60.559,-431.7,0.023,0.999,0.027,0.019,0.999,0.027,0.023,0.999,0.027,0.021,0.999,0.025,-0.433,0.034,-0.901,-0.431,0.032,-0.902,-0.385,0.033,-0.922,-0.391,0.031,-0.92,0.53,0.149,-0.036,7.486,1.7,1.16.4,1,1,rss_formula_hybrid_2023,ks_nurburgring,rangarajanpraneeth,rangarajanpraneeth,rangarajanpraneeth,3,239.313,573674.625,13050,148,0.15,0.15,0.15,0.15,0.363,0.363,0.363,0.363,1.6,0,0,false,1,0,0,false,0,true,false,true,true,false,0,11,6,5077.904,layout_gp_a,4000000,false,false,rb20_1_verstappen,0,0,0,260
3574,AC_LIVE,AC_PRACTICE,0:11:625,-:--:---,-:--:---, ,0,1,11625,0,0,-14279.491,21.27,0,0,0,0,Soft (C3),1,0.066,-21.699,60.795,-430.372,0,AC_NO_FLAG,false,false,1,false,0,-180,0,0,49.993,1,3242,-0.142,26.988,3.05,-0.242,6.844,0.072,-0.059,0.077,0.085,0.026,0.024,0.153,519.053,3000.833,3536.034,960.832,17,17,15.041,15.037,20.401,20.93,20.449,20.957,100,100,100,100,0,0,0,0,26.002,26.002,26.423,26.382,-0.059,0.048,-0.039,0.028,0.101,0.108,0.056,0.04,0,0,-0.4,-0.027,-0.002,0.271,0,0,0,0,0,0,false,0,1,0,true,0.035,0.06,0,0,1.099,26,23,0.008,0.12,-0.004,0.03,0,6,5,3,1,false,0,true,false,25.996,25.996,26.029,26.029,1,26.732,27.012,38.468,38.36,26.752,26.762,38.175,37.171,26.967,26.705,39.418,37.403,false,-20.254,60.465,-428.898,-21.674,60.48,-428.282,-21.669,60.584,-432.196,-23.029,60.556,-431.621,0.023,0.999,0.027,0.023,0.999,0.027,0.023,0.999,0.027,0.003,1,0.026,-0.435,0.034,-0.9,-0.432,0.034,-0.901,-0.386,0.033,-0.922,-0.392,0.025,-0.92,0.53,0.145,-0.043,7.495,1.7,1.16.4,1,1,rss_formula_hybrid_2023,ks_nurburgring,rangarajanpraneeth,rangarajanpraneeth,rangarajanpraneeth,3,239.313,573674.625,13050,148,0.15,0.15,0.15,0.15,0.363,0.363,0.363,0.363,1.6,0,0,false,1,0,0,false,0,true,false,true,true,false,0,11,6,5077.904,layout_gp_a,4000000,false,false,rb20_1_verstappen,0,0,0,270
3577,AC_LIVE,AC_PRACTICE,0:11:631,-:--:---,-:--:---, ,0,1,11631,0,0,-14287.127,21.325,0,0,0,0,Soft (C3),1,0.066,-21.681,60.794,-430.331,0,AC_NO_FLAG,false,false,1,false,0,-180,0,0,49.993,1,3243,-0.142,27.014,3.059,-0.246,6.847,0.09,-0.042,0.083,0.08,0.03,0.027,0.153,529.818,3035.233,3495.591,1128.138,17,17,15.041,15.037,20.425,20.935,20.472,20.944,100,100,100,100,0,0,0,0,26.002,26.002,26.424,26.383,-0.059,0.048,-0.039,0.031,0.101,0.108,0.056,0.04,0,0,-0.401,-0.027,-0.002,0.27,0,0,0,0,0,0,false,0,1,0,true,0.035,0.059,0,0,1.099,26,23,0.01,0.117,0.004,0.025,0,6,5,3,1,false,0,true,false,25.996,25.996,26.029,26.029,1,26.733,27.016,38.466,38.355,26.752,26.766,38.173,37.167,26.968,26.709,39.417,37.399,false,-20.225,60.462,-428.838,-21.644,60.478,-428.221,-21.643,60.582,-432.135,-22.994,60.555,-431.561,0.023,0.999,0.027,0.023,0.999,0.027,0.023,0.999,0.027,0,1,0.026,-0.436,0.034,-0.899,-0.433,0.034,-0.901,-0.387,0.033,-0.921,-0.393,0.024,-0.919,0.53,0.145,-0.046,7.502,1.7,1.16.4,1,1,rss_formula_hybrid_2023,ks_nurburgring,rangarajanpraneeth,rangarajanpraneeth,rangarajanpraneeth,3,239.313,573674.625,13050,148,0.15,0.15,0.15,0.15,0.363,0.363,0.363,0.363,1.6,0,0,false,1,0,0,false,0,true,false,true,true,false,0,11,6,5077.904,layout_gp_a,4000000,false,false,rb20_1_verstappen,0,0,0,280
3580,AC_LIVE,AC_PRACTICE,0:11:640,-:--:---,-:--:---, ,0,1,11640,0,0,-14294.464,21.382,0,0,0,0,Soft (C3),1,0.066,-21.662,60.792,-430.29,0,AC_NO_FLAG,false,false,1,false,0,-180,0,0,49.993,1,3243,-0.142,27.042,3.071,-0.249,6.851,0.106,-0.017,0.085,0.074,0.034,0.031,0.152,548.868,3084.938,3450.325,1308.789,17,17,15.041,15.037,20.449,20.945,20.487,20.933,100,100,100,100,0,0,0,0,26.002,26.002,26.425,26.384,-0.059,0.048,-0.039,0.034,0.101,0.108,0.056,0.041,0,0,-0.402,-0.027,-0.002,0.27,0,0,0,0,0,0,false,0,1,0,true,0.035,0.059,0,0,1.099,26,23,0.013,0.114,0.006,0.019,0,6,5,3,1,false,0,true,false,25.996,25.996,26.029,26.029,1,26.733,27.021,38.464,38.351,26.752,26.77,38.171,37.163,26.968,26.713,39.415,37.395,false,-20.195,60.46,-428.777,-21.615,60.476,-428.159,-21.618,60.58,-432.073,-22.957,60.553,-431.501,0.023,0.999,0.027,0.023,0.999,0.027,0.023,0.999,0.027,-0.004,1,0.026,-0.437,0.034,-0.899,-0.434,0.034,-0.9,-0.388,0.033,-0.921,-0.394,0.023,-0.919,0.53,0.146,-0.048,7.51,1.7,1.16.4,1,1,rss_formula_hybrid_2023,ks_nurburgring,rangarajanpraneeth,rangarajanpraneeth,rangarajanpraneeth,3,239.313,573674.625,13050,148,0.15,0.15,0.15,0.15,0.363,0.363,0.363,0.363,1.6,0,0,false,1,0,0,false,0,true,false,true,true,false,0,11,6,5077.904,layout_gp_a,4000000,false,false,rb20_1_verstappen,0,0,0,290
3584,AC_LIVE,AC_PRACTICE,0:11:655,-:--:---,-:--:---, ,0,1,11655,0,0,-14309.51,21.494,0,0,0,0,Soft (C3),1,0.066,-21.607,60.788,-430.167,0,AC_NO_FLAG,false,false,1,false,0,-180,0,0,49.993,1,3244,-0.142,27.077,3.087,-0.248,6.854,0.127,0.018,0.08,0.067,0.04,0.037,0.159,605.154,3150.597,3399.074,1481.765,17,17,15.041,15.037,20.478,20.956,20.503,20.927,100,100,100,100,0,0,0,0,26.002,26.002,26.426,26.385,-0.059,0.048,-0.039,0.044,0.102,0.108,0.056,0.041,0,0,-0.403,-0.027,-0.002,0.27,0,0,0,0,0,0,false,0,1,0,true,0.035,0.059,0,0,1.099,26,23,0.019,0.11,-0.003,0.013,0,6,5,3,1,false,0,true,false,25.996,25.996,26.029,26.029,1,26.733,27.026,38.461,38.346,26.753,26.775,38.169,37.159,26.969,26.718,39.412,37.39,false,-20.156,60.457,-428.696,-21.575,60.472,-428.077,-21.583,60.577,-431.991,-22.914,60.551,-431.417,0.023,0.999,0.027,0.023,0.999,0.027,0.023,0.999,0.027,-0.014,1,0.027,-0.438,0.034,-0.898,-0.435,0.034,-0.9,-0.389,0.033,-0.921,-0.395,0.019,-0.918,0.53,0.15,-0.046,7.52,1.7,1.16.4,1,1,rss_formula_hybrid_2023,ks_nurburgring,rangarajanpraneeth,rangarajanpraneeth,rangarajanpraneeth,3,239.313,573674.625,13050,148,0.15,0.15,0.15,0.15,0.363,0.363,0.363,0.363,1.6,0,0,false,1,0,0,false,0,true,false,true,true,false,0,11,6,5077.904,layout_gp_a,4000000,false,false,rb20_1_verstappen,0,0,0,300
3587,AC_LIVE,AC_PRACTICE,0:11:661,-:--:---,-:--:---, ,0,1,11661,0,0,-14317.143,21.55,0,0,0,0,Soft (C3),1,0.066,-21.588,60.786,-430.126,0,AC_NO_FLAG,false,false,1,false,0,-180,0,0,49.993,1,3245,-0.142,27.102,3.1,-0.246,6.856,0.13,0.04,0.074,0.062,0.045,0.041,0.155,669.917,3183.808,3363.657,1562.857,17,17,15.041,15.037,20.494,20.961,20.517,20.933,100,100,100,100,0,0,0,0,26.002,26.002,26.427,26.386,-0.059,0.048,-0.039,0.045,0.102,0.108,0.056,0.041,0,0,-0.404,-0.027,-0.002,0.27,0,0,0,0,0,0,false,0,1,0,true,0.034,0.059,0,0,1.099,26,23,0.022,0.108,-0.017,0.007,0,6,5,3,1,false,0,true,false,25.996,25.996,26.029,26.029,1,26.734,27.031,38.459,38.342,26.753,26.778,38.166,37.155,26.969,26.721,39.41,37.386,false,-20.126,60.455,-428.634,-21.545,60.47,-428.015,-21.557,60.575,-431.929,-22.883,60.55,-431.356,0.023,0.999,0.027,0.023,0.999,0.027,0.023,0.999,0.027,-0.015,1,0.027,-0.439,0.034,-0.898,-0.436,0.034,-0.899,-0.39,0.033,-0.92,-0.396,0.019,-0.918,0.53,0.154,-0.041,7.527,1.7,1.16.4,1,1,rss_formula_hybrid_2023,ks_nurburgring,rangarajanpraneeth,rangarajanpraneeth,rangarajanpraneeth,3,239.313,573674.625,13050,148,0.15,0.15,0.15,0.15,0.363,0.363,0.363,0.363,1.6,0,0,false,1,0,0,false,0,true,false,true,true,false,0,11,6,5077.904,layout_gp_a,4000000,false,false,rb20_1_verstappen,0,0,0,310
3590,AC_LIVE,AC_PRACTICE,0:11:670,-:--:---,-:--:---, ,0,1,11670,0,0,-14324.489,21.607,0,0,0,0,Soft (C3),1,0.066,-21.56,60.784,-430.064,0,AC_NO_FLAG,false,false,1,false,0,-180,0,0,49.993,1,3248,-0.142,27.125,3.113,-0.241,6.857,0.129,0.056,0.068,0.058,0.049,0.045,0.151,753.721,3196.606,3333.453,1573.391,17,17,15.041,15.037,20.506,20.974,20.531,20.949,100,100,100,100,0,0,0,0,26.002,26.002,26.428,26.387,-0.059,0.048,-0.039,0.045,0.102,0.108,0.056,0.042,0,0,-0.405,-0.027,-0.002,0.27,0,0,0,0,0,0,false,0,1,0,true,0.034,0.059,0,0,1.099,26,23,0.025,0.108,-0.032,0.002,0,6,5,3,1,false,0,true,false,25.996,25.996,26.029,26.029,1,26.734,27.035,38.457,38.339,26.754,26.782,38.164,37.152,26.97,26.725,39.407,37.382,false,-20.096,60.452,-428.573,-21.515,60.468,-427.953,-21.53,60.572,-431.868,-22.856,60.549,-431.293,0.023,0.999,0.027,0.023,0.999,0.027,0.023,0.999,0.027,-0.015,1,0.027,-0.44,0.034,-0.898,-0.437,0.034,-0.899,-0.391,0.033,-0.92,-0.397,0.019,-0.918,0.53,0.158,-0.035,7.533,1.7,1.16.4,1,1,rss_formula_hybrid_2023,ks_nurburgring,rangarajanpraneeth,rangarajanpraneeth,rangarajanpraneeth,3,239.313,573674.625,13050,148,0.15,0.15,0.15,0.15,0.363,0.363,0.363,0.363,1.6,0,0,false,1,0,0,false,0,true,false,true,true,false,0,11,6,5077.904,layout_gp_a,4000000,false,false,rb20_1_verstappen,0,0,0,320
3594,AC_LIVE,AC_PRACTICE,0:11:685,-:--:---,-:--:---, ,0,1,11685,0,0,-14339.469,21.72,0,0,0,0,Soft (C3),1,0.066,-21.514,60.781,-429.961,0,AC_NO_FLAG,false,false,1,false,0,-180,0,0,49.993,1,3251,-0.142,27.154,3.13,-0.234,6.859,0.124,0.065,0.064,0.055,0.052,0.047,0.15,881.296,3184.12,3302.875,1546.841,17,17,15.041,15.037,20.519,20.996,20.548,20.982,100,100,100,100,0,0,0,0,26.002,26.002,26.429,26.388,-0.059,0.049,-0.038,0.046,0.102,0.108,0.056,0.042,0,0,-0.407,-0.028,-0.001,0.269,0,0,0,0,0,0,false,0,1,0,true,0.034,0.059,0,0,1.099,26,23,0.027,0.11,-0.051,-0.002,0,6,5,3,1,false,0,true,false,25.996,25.996,26.029,26.029,1,26.735,27.041,38.453,38.334,26.755,26.787,38.161,37.147,26.972,26.73,39.404,37.378,false,-20.056,60.449,-428.492,-21.474,60.465,-427.871,-21.495,60.569,-431.786,-22.82,60.547,-431.209,0.023,0.999,0.027,0.023,0.999,0.027,0.023,0.999,0.027,-0.015,1,0.027,-0.441,0.034,-0.897,-0.438,0.034,-0.898,-0.392,0.033,-0.919,-0.398,0.019,-0.917,0.53,0.163,-0.025,7.541,1.7,1.16.4,1,1,rss_formula_hybrid_2023,ks_nurburgring,rangarajanpraneeth,rangarajanpraneeth,rangarajanpraneeth,3,239.313,573674.625,13050,148,0.15,0.15,0.15,0.15,0.363,0.363,0.363,0.363,1.6,0,0,false,1,0,0,false,0,true,false,true,true,false,0,11,6,5077.904,layout_gp_a,4000000,false,false,rb20_1_verstappen,0,0,0,330
3597,AC_LIVE,AC_PRACTICE,0:11:691,-:--:---,-:--:---, ,0,1,11691,0,0,-14347.145,21.775,0,0,0,0,Soft (C3),1,0.066,-21.495,60.779,-429.92,0,AC_NO_FLAG,false,false,1,false,0,-180,0,0,49.993,1,3255,-0.142,27.175,3.142,-0.229,6.86,0.121,0.065,0.063,0.055,0.053,0.047,0.151,943.832,3146.673,3285.835,1512.605,17,17,15.041,15.037,20.531,21.017,20.564,21.006,100,100,100,100,0,0,0,0,26.002,26.002,26.43,26.389,-0.058,0.049,-0.037,0.047,0.102,0.108,0.055,0.042,0,0,-0.408,-0.028,-0.001,0.269,0,0,0,0,0,0,false,0,1,0,true,0.033,0.059,0,0,1.099,26,23,0.026,0.111,-0.06,-0.003,0,6,5,3,1,false,0,true,false,25.996,25.996,26.029,26.029,1,26.736,27.045,38.451,38.33,26.756,26.791,38.159,37.143,26.973,26.734,39.402,37.374,false,-20.024,60.447,-428.432,-21.444,60.462,-427.81,-21.468,60.567,-431.724,-22.791,60.546,-431.146,0.023,0.999,0.027,0.023,0.999,0.027,0.023,0.999,0.027,-0.015,1,0.027,-0.442,0.034,-0.897,-0.439,0.034,-0.898,-0.393,0.033,-0.919,-0.399,0.019,-0.917,0.53,0.166,-0.018,7.547,1.7,1.16.4,1,1,rss_formula_hybrid_2023,ks_nurburgring,rangarajanpraneeth,rangarajanpraneeth,rangarajanpraneeth,3,239.313,573674.625,13050,148,0.15,0.15,0.15,0.15,0.363,0.363,0.363,0.363,1.6,0,0,false,1,0,0,false,0,true,false,true,true,false,0,11,6,5077.904,layout_gp_a,4000000,false,false,rb20_1_verstappen,0,0,0,340
3600,AC_LIVE,AC_PRACTICE,0:11:700,-:--:---,-:--:---, ,0,1,11700,0,0,-14354.701,21.833,0,0,0,0,Soft (C3),1,0.066,-21.466,60.777,-429.858,0,AC_NO_FLAG,false,false,1,false,0,-180,0,0,49.993,1,3258,-0.142,27.196,3.154,-0.223,6.861,0.116,0.06,0.063,0.057,0.053,0.047,0.152,1010.112,3090.552,3266.707,1487.468,17,17,15.041,15.037,20.547,21.04,20.581,21.029,100,100,100,100,0,0,0,0,26.002,26.002,26.431,26.39,-0.058,0.05,-0.037,0.047,0.102,0.108,0.055,0.042,0,0,-0.409,-0.028,0,0.269,0,0,0,0,0,0,false,0,1,0,true,0.033,0.059,0,0,1.099,26,23,0.024,0.113,-0.065,0.001,0,6,5,3,1,false,0,true,false,25.996,25.996,26.029,26.029,1,26.737,27.049,38.448,38.326,26.757,26.795,38.156,37.14,26.974,26.737,39.4,37.37,false,-19.992,60.445,-428.372,-21.413,60.46,-427.748,-21.441,60.565,-431.663,-22.763,60.544,-431.084,0.023,0.999,0.027,0.023,0.999,0.027,0.023,0.999,0.027,-0.015,1,0.027,-0.443,0.034,-0.896,-0.44,0.034,-0.897,-0.394,0.033,-0.918,-0.4,0.019,-0.916,0.53,0.169,-0.01,7.553,1.7,1.16.4,1,1,rss_formula_hybrid_2023,ks_nurburgring,rangarajanpraneeth,rangarajanpraneeth,rangarajanpraneeth,3,239.313,573674.625,13050,148,0.15,0.15,0.15,0.15,0.363,0.363,0.363,0.363,1.6,0,0,false,1,0,0,false,0,true,false,true,true,false,0,11,6,5077.904,layout_gp_a,4000000,false,false,rb20_1_verstappen,0,0,0,350
3604,AC_LIVE,AC_PRACTICE,0:11:706,-:--:---,-:--:---, ,0,1,11706,0,0,-14362.377,21.89,0,0,0,0,Soft (C3),1,0.066,-21.447,60.776,-429.817,0,AC_NO_FLAG,false,false,1,false,0,-180,0,0,49.993,1,3262,-0.142,27.224,3.169,-0.217,6.863,0.108,0.051,0.064,0.06,0.051,0.047,0.153,1069.775,2999.54,3233.207,1465.288,17,17,15.042,15.038,20.571,21.066,20.605,21.057,100,100,100,100,0,0,0,0,26.002,26.002,26.433,26.391,-0.057,0.051,-0.036,0.048,0.103,0.108,0.055,0.042,0,0,-0.41,-0.028,0,0.269,0,0,0,0,0,0,false,0,1,0,true,0.033,0.059,0,0,1.099,26,23,0.022,0.114,-0.064,0.007,0,6,5,3,1,false,0,true,false,25.996,25.996,26.029,26.029,1,26.738,27.055,38.445,38.321,26.758,26.8,38.153,37.135,26.975,26.742,39.396,37.365,false,-19.95,60.442,-428.295,-21.372,60.457,-427.666,-21.404,60.562,-431.581,-22.724,60.543,-431.001,0.023,0.999,0.027,0.023,0.999,0.027,0.023,0.999,0.027,-0.015,1,0.027,-0.444,0.034,-0.895,-0.441,0.034,-0.897,-0.395,0.033,-0.918,-0.401,0.019,-0.916,0.53,0.172,-0.002,7.56,1.7,1.16.4,1,1,rss_formula_hybrid_2023,ks_nurburgring,rangarajanpraneeth,rangarajanpraneeth,rangarajanpraneeth,3,239.313,573674.625,13050,148,0.15,0.15,0.15,0.15,0.363,0.363,0.363,0.363,1.6,0,0,false,1,0,0,false,0,true,false,true,true,false,0,11,6,5077.904,layout_gp_a,4000000,false,false,rb20_1_verstappen,0,0,0,360
3607,AC_LIVE,AC_PRACTICE,0:11:721,-:--:---,-:--:---, ,0,1,11721,0,0,-14377.415,22.003,0,0,0,0,Soft (C3),1,0.066,-21.4,60.773,-429.714,0,AC_NO_FLAG,false,false,1,false,0,-180,0,0,49.993,1,3265,-0.141,27.245,3.18,-0.213,6.864,0.099,0.04,0.065,0.063,0.049,0.047,0.153,1108.241,2927.217,3203.301,1449.572,17,17,15.042,15.038,20.591,21.086,20.627,21.075,100,100,100,100,0,0,0,0,26.002,26.002,26.434,26.392,-0.056,0.051,-0.035,0.049,0.103,0.108,0.055,0.043,0,0,-0.411,-0.029,0.001,0.269,0,0,0,0,0,0,false,0,1,0,true,0.033,0.059,0,0,1.099,26,23,0.019,0.113,-0.058,0.01,0,6,5,3,1,false,0,true,false,25.996,25.996,26.029,26.029,1,26.739,27.059,38.443,38.317,26.759,26.804,38.151,37.132,26.977,26.746,39.394,37.362,false,-19.919,60.439,-428.237,-21.341,60.455,-427.604,-21.377,60.56,-431.519,-22.696,60.541,-430.939,0.023,0.999,0.027,0.023,0.999,0.027,0.023,0.999,0.027,-0.015,1,0.027,-0.445,0.034,-0.895,-0.442,0.034,-0.896,-0.396,0.033,-0.918,-0.402,0.019,-0.915,0.53,0.173,0.004,7.566,1.7,1.16.4,1,1,rss_formula_hybrid_2023,ks_nurburgring,rangarajanpraneeth,rangarajanpraneeth,rangarajanpraneeth,3,239.313,573674.625,13050,148,0.15,0.15,0.15,0.15,0.363,0.363,0.363,0.363,1.6,0,0,false,1,0,0,false,0,true,false,true,true,false,0,11,6,5077.904,layout_gp_a,4000000,false,false,rb20_1_verstappen,0,0,0,370
3610,AC_LIVE,AC_PRACTICE,0:11:730,-:--:---,-:--:---, ,0,1,11730,0,0,-14384.641,22.062,0,0,0,0,Soft (C3),1,0.066,-21.371,60.771,-429.652,0,AC_NO_FLAG,false,false,1,false,0,-180,0,0,49.993,1,3268,-0.141,27.267,3.19,-0.21,6.867,0.089,0.03,0.065,0.065,0.047,0.048,0.151,1127.153,2855.797,3157.219,1446.323,17,17,15.042,15.038,20.613,21.104,20.65,21.092,100,100,100,100,0,0,0,0,26.002,26.002,26.435,26.393,-0.056,0.052,-0.035,0.049,0.103,0.108,0.055,0.043,0,0,-0.412,-0.029,0.001,0.269,0,0,0,0,0,0,false,0,1,0,true,0.033,0.059,0,0,1.099,26,23,0.017,0.113,-0.051,0.012,0,6,5,3,1,false,0,true,false,25.996,25.996,26.029,26.029,1,26.74,27.064,38.44,38.314,26.76,26.807,38.149,37.128,26.978,26.75,39.391,37.358,false,-19.888,60.437,-428.177,-21.31,60.452,-427.543,-21.349,60.557,-431.458,-22.668,60.54,-430.876,0.023,0.999,0.027,0.023,0.999,0.027,0.023,0.999,0.027,-0.015,1,0.027,-0.446,0.034,-0.895,-0.443,0.034,-0.896,-0.397,0.033,-0.917,-0.403,0.019,-0.915,0.53,0.173,0.008,7.572,1.7,1.16.4,1,1,rss_formula_hybrid_2023,ks_nurburgring,rangarajanpraneeth,rangarajanpraneeth,rangarajanpraneeth,3,239.313,573674.625,13050,148,0.15,0.15,0.15,0.15,0.363,0.363,0.363,0.363,1.6,0,0,false,1,0,0,false,0,true,false,true,true,false,0,11,6,5077.904,layout_gp_a,4000000,false,false,rb20_1_verstappen,0,0,0,380
3614,AC_LIVE,AC_PRACTICE,0:11:745,-:--:---,-:--:---, ,0,1,11745,0,0,-14399.669,22.175,0,0,0,0,Soft (C3),1,0.066,-21.323,60.768,-429.549,0,AC_NO_FLAG,false,false,1,false,0,-180,0,0,49.993,1,3272,-0.141,27.295,3.201,-0.209,6.87,0.077,0.012,0.065,0.066,0.046,0.051,0.147,1134.538,2766.173,3086.013,1459.172,17,17,15.042,15.038,20.642,21.126,20.681,21.114,100,100,100,100,0,0,0,0,26.002,26.002,26.436,26.394,-0.055,0.052,-0.034,0.05,0.103,0.108,0.054,0.043,0,0,-0.413,-0.029,0.002,0.27,0,0,0,0,0,0,false,0,1,0,true,0.033,0.059,0,0,1.099,26,23,0.015,0.111,-0.039,0.013,0,6,5,3,1,false,0,true,false,25.996,25.996,26.029,26.029,1,26.741,27.069,38.436,38.308,26.762,26.812,38.145,37.123,26.98,26.754,39.388,37.352,false,-19.847,60.434,-428.097,-21.268,60.449,-427.46,-21.313,60.554,-431.376,-22.631,60.538,-430.792,0.023,0.999,0.027,0.023,0.999,0.027,0.023,0.999,0.027,-0.015,1,0.027,-0.447,0.034,-0.894,-0.444,0.034,-0.895,-0.398,0.033,-0.917,-0.404,0.019,-0.915,0.53,0.173,0.012,7.58,1.7,1.16.4,1,1,rss_formula_hybrid_2023,ks_nurburgring,rangarajanpraneeth,rangarajanpraneeth,rangarajanpraneeth,3,239.313,573674.625,13050,148,0.15,0.15,0.15,0.15,0.363,0.363,0.363,0.363,1.6,0,0,false,1,0,0,false,0,true,false,true,true,false,0,11,6,5077.904,layout_gp_a,4000000,false,false,rb20_1_verstappen,0,0,0,390
3617,AC_LIVE,AC_PRACTICE,0:11:751,-:--:---,-:--:---, ,0,1,11751,0,0,-14407.366,22.23,0,0,0,0,Soft (C3),1,0.066,-21.304,60.766,-429.508,0,AC_NO_FLAG,false,false,1,false,0,-180,0,0,49.993,1,3275,-0.141,27.316,3.21,-0.209,6.872,0.07,-0.001,0.066,0.066,0.046,0.054,0.144,1129.274,2708.038,3026.931,1483.734,17,17,15.042,15.038,20.663,21.143,20.703,21.131,100,100,100,100,0,0,0,0,26.002,26.002,26.437,26.395,-0.055,0.052,-0.034,0.05,0.103,0.108,0.054,0.043,0,0,-0.414,-0.029,0.002,0.27,0,0,0,0,0,0,false,0,1,0,true,0.033,0.059,0,0,1.099,26,23,0.013,0.11,-0.031,0.012,0,6,5,3,1,false,0,true,false,25.996,25.996,26.029,26.029,1,26.742,27.073,38.434,38.304,26.763,26.816,38.143,37.119,26.981,26.758,39.385,37.349,false,-19.817,60.432,-428.037,-21.237,60.447,-427.399,-21.285,60.552,-431.314,-22.603,60.537,-430.728,0.023,0.999,0.027,0.023,0.999,0.027,0.023,0.999,0.027,-0.015,1,0.027,-0.448,0.034,-0.894,-0.445,0.034,-0.895,-0.399,0.033,-0.916,-0.405,0.019,-0.914,0.53,0.172,0.013,7.586,1.7,1.16.4,1,1,rss_formula_hybrid_2023,ks_nurburgring,rangarajanpraneeth,rangarajanpraneeth,rangarajanpraneeth,3,239.313,573674.625,13050,148,0.15,0.15,0.15,0.15,0.363,0.363,0.363,0.363,1.6,0,0,false,1,0,0,false,0,true,false,true,true,false,0,11,6,5077.904,layout_gp_a,4000000,false,false,rb20_1_verstappen,0,0,0,400
3620,AC_LIVE,AC_PRACTICE,0:11:760,-:--:---,-:--:---, ,0,1,11760,0,0,-14414.742,22.289,0,0,0,0,Soft (C3),1,0.066,-21.275,60.765,-429.446,0,AC_NO_FLAG,false,false,1,false,0,-180,0,0,49.993,1,3278,-0.141,27.338,3.217,-0.209,6.875,0.067,-0.013,0.066,0.066,0.047,0.057,0.142,1119.147,2658.465,2967.207,1513.964,17,17,15.042,15.038,20.682,21.16,20.725,21.148,100,100,100,100,0,0,0,0,26.002,26.002,26.438,26.396,-0.055,0.053,-0.034,0.05,0.103,0.107,0.054,0.043,0,0,-0.415,-0.029,0.002,0.27,0,0,0,0,0,0,false,0,1,0,true,0.033,0.059,0,0,1.099,26,23,0.012,0.109,-0.024,0.01,0,6,5,3,1,false,0,true,false,25.996,25.996,26.029,26.029,1,26.743,27.077,38.431,38.301,26.764,26.819,38.14,37.116,26.982,26.761,39.382,37.345,false,-19.787,60.43,-427.976,-21.205,60.444,-427.337,-21.257,60.55,-431.253,-22.576,60.536,-430.664,0.023,0.999,0.027,0.023,0.999,0.027,0.023,0.999,0.027,-0.015,1,0.027,-0.449,0.034,-0.893,-0.446,0.034,-0.894,-0.4,0.033,-0.916,-0.406,0.019,-0.914,0.53,0.17,0.013,7.592,1.7,1.16.4,1,1,rss_formula_hybrid_2023,ks_nurburgring,rangarajanpraneeth,rangarajanpraneeth,rangarajanpraneeth,3,239.313,573674.625,13050,148,0.15,0.15,0.15,0.15,0.363,0.363,0.363,0.363,1.6,0,0,false,1,0,0,false,0,true,false,true,true,false,0,11,6,5077.904,layout_gp_a,4000000,false,false,rb20_1_verstappen,0,0,0,410
3624,AC_LIVE,AC_PRACTICE,0:11:766,-:--:---,-:--:---, ,0,1,11766,0,0,-14422.48,22.345,0,0,0,0,Soft (C3),1,0.066,-21.256,60.763,-429.405,0,AC_NO_FLAG,false,false,1,false,0,-180,0,0,49.993,1,3282,-0.141,27.367,3.228,-0.212,6.879,0.067,-0.027,0.068,0.064,0.048,0.059,0.139,1103.721,2598.534,2891.051,1561.665,17,17,15.042,15.038,20.706,21.181,20.751,21.17,100,100,100,100,0,0,0,0,26.002,26.002,26.44,26.398,-0.055,0.053,-0.033,0.05,0.103,0.107,0.054,0.043,0,0,-0.417,-0.029,0.003,0.27,0,0,0,0,0,0,false,0,1,0,true,0.034,0.059,0,0,1.099,26,23,0.012,0.109,-0.019,0.007,0,6,5,3,1,false,0,true,false,25.996,25.996,26.029,26.029,1,26.745,27.082,38.427,38.296,26.765,26.823,38.136,37.111,26.984,26.765,39.378,37.34,false,-19.746,60.426,-427.896,-21.164,60.441,-427.255,-21.22,60.547,-431.17,-22.541,60.534,-430.579,0.023,0.999,0.027,0.023,0.999,0.027,0.023,0.999,0.027,-0.015,1,0.027,-0.45,0.034,-0.893,-0.447,0.034,-0.894,-0.401,0.033,-0.915,-0.407,0.019,-0.913,0.53,0.168,0.011,7.6,1.7,1.16.4,1,1,rss_formula_hybrid_2023,ks_nurburgring,rangarajanpraneeth,rangarajanpraneeth,rangarajanpraneeth,3,239.313,573674.625,13050,148,0.15,0.15,0.15,0.15,0.363,0.363,0.363,0.363,1.6,0,0,false,1,0,0,false,0,true,false,true,true,false,0,11,6,5077.904,layout_gp_a,4000000,false,false,rb20_1_verstappen,0,0,0,420
3627,AC_LIVE,AC_PRACTICE,0:11:781,-:--:---,-:--:---, ,0,1,11781,0,0,-14437.456,22.461,0,0,0,0,Soft (C3),1,0.066,-21.207,60.76,-429.302,0,AC_NO_FLAG,false,false,1,false,0,-180,0,0,49.993,1,3285,-0.141,27.389,3.236,-0.215,6.882,0.07,-0.035,0.068,0.062,0.05,0.061,0.138,1097.177,2562.35,2834.863,1601.776,17,17,15.042,15.038,20.723,21.197,20.769,21.186,100,100,100,100,0,0,0,0,26.002,26.002,26.441,26.399,-0.054,0.053,-0.033,0.051,0.103,0.107,0.054,0.043,0,0,-0.418,-0.029,0.003,0.27,0,0,0,0,0,0,false,0,1,0,true,0.034,0.06,0,0,1.099,26,23,0.012,0.108,-0.017,0.005,0,6,5,3,1,false,0,true,false,25.996,25.996,26.029,26.029,1,26.746,27.085,38.424,38.292,26.766,26.826,38.134,37.107,26.985,26.768,39.375,37.336,false,-19.716,60.424,-427.835,-21.133,60.439,-427.193,-21.193,60.545,-431.108,-22.514,60.533,-430.515,0.023,0.999,0.027,0.023,0.999,0.027,0.023,0.999,0.027,-0.015,1,0.027,-0.451,0.034,-0.892,-0.448,0.034,-0.893,-0.402,0.033,-0.915,-0.408,0.019,-0.913,0.53,0.166,0.009,7.606,1.7,1.16.4,1,1,rss_formula_hybrid_2023,ks_nurburgring,rangarajanpraneeth,rangarajanpraneeth,rangarajanpraneeth,3,239.313,573674.625,13050,148,0.15,0.15,0.15,0.15,0.363,0.363,0.363,0.363,1.6,0,0,false,1,0,0,false,0,true,false,true,true,false,0,11,6,5077.904,layout_gp_a,4000000,false,false,rb20_1_verstappen,0,0,0,430
3630,AC_LIVE,AC_PRACTICE,0:11:790,-:--:---,-:--:---, ,0,1,11790,0,0,-14444.802,22.517,0,0,0,0,Soft (C3),1,0.066,-21.178,60.758,-429.24,0,AC_NO_FLAG,false,false,1,false,0,-180,0,0,49.993,1,3287,-0.141,27.411,3.244,-0.219,6.885,0.076,-0.041,0.069,0.06,0.052,0.061,0.138,1095.707,2529.62,2797.356,1645.823,17,17,15.042,15.038,20.74,21.213,20.786,21.201,100,100,100,100,0,0,0,0,26.002,26.002,26.442,26.399,-0.054,0.053,-0.033,0.051,0.103,0.107,0.053,0.043,0,0,-0.419,-0.03,0.003,0.27,0,0,0,0,0,0,false,0,1,0,true,0.034,0.06,0,0,1.099,26,23,0.013,0.108,-0.017,0.001,0,6,5,3,1,false,0,true,false,25.996,25.996,26.029,26.029,1,26.747,27.089,38.421,38.288,26.767,26.829,38.131,37.104,26.986,26.771,39.373,37.332,false,-19.685,60.422,-427.774,-21.101,60.437,-427.131,-21.165,60.542,-431.047,-22.488,60.531,-430.451,0.023,0.999,0.027,0.023,0.999,0.027,0.023,0.999,0.027,-0.015,1,0.027,-0.451,0.034,-0.892,-0.449,0.034,-0.893,-0.403,0.033,-0.914,-0.409,0.019,-0.912,0.53,0.166,0.007,7.612,1.7,1.16.4,1,1,rss_formula_hybrid_2023,ks_nurburgring,rangarajanpraneeth,rangarajanpraneeth,rangarajanpraneeth,3,239.313,573674.625,13050,148,0.15,0.15,0.15,0.15,0.363,0.363,0.363,0.363,1.6,0,0,false,1,0,0,false,0,true,false,true,true,false,0,11,6,5077.904,layout_gp_a,4000000,false,false,rb20_1_verstappen,0,0,0,440
